%time,field.transforms0.header.seq,field.transforms0.header.stamp,field.transforms0.header.frame_id,field.transforms0.child_frame_id,field.transforms0.transform.translation.x,field.transforms0.transform.translation.y,field.transforms0.transform.translation.z,field.transforms0.transform.rotation.x,field.transforms0.transform.rotation.y,field.transforms0.transform.rotation.z,field.transforms0.transform.rotation.w
1624378504215662993,0,1624378504215428254,world,cf10,-1.02218091488,0.0508412830532,0.0195131190121,-0.00653088986865,0.0177408161307,-0.0590524719129,0.998075857078
1624378504215713139,0,1624378504215443479,world,cf11,2.04198265076,-0.0376113988459,0.0050865393132,-0.00571767274626,0.000631703631888,0.016379620516,0.999849297245
1624378504215768943,0,1624378504215448927,world,cf12,2.02368927002,1.01898610592,0.0142622375861,0.00614921983654,0.0103835408013,-0.0251453724652,0.999610964035
1624378504215794994,0,1624378504215453816,world,cf7,-0.996206223965,1.10208415985,0.0132810175419,0.0071649746402,0.00575029053828,-0.00447635395633,0.999947778413
1624378504225364259,0,1624378504225099837,world,cf10,-1.02219986916,0.0508185364306,0.0195680465549,-0.00787412298732,0.0193723313882,-0.0578642015476,0.99810542787
1624378504225403929,0,1624378504225122885,world,cf11,2.04196095467,-0.0376236774027,0.00506345136091,-0.00623963761527,0.000610033795418,0.0162510608064,0.999848287394
1624378504225426558,0,1624378504225131895,world,cf12,2.02376818657,1.01897025108,0.0142804943025,0.00645355962635,0.0107708403908,-0.0243445183749,0.999624772097
1624378504225458057,0,1624378504225139927,world,cf7,-0.99631100893,1.1021515131,0.0132212908939,0.0101150118919,0.00708219802293,-0.00645390218429,0.999902933365
1624378504235562452,0,1624378504235242436,world,cf10,-1.02223575115,0.0507865734398,0.0196666941047,-0.00711595948124,0.0194843257663,-0.0600642807975,0.997978960872
1624378504235595208,0,1624378504235265344,world,cf11,2.0419716835,-0.0375438146293,0.00508954050019,-0.00511056939259,0.000520932264927,0.0159913192661,0.999858934259
1624378504235625938,0,1624378504235282455,world,cf12,2.02374434471,1.01893699169,0.0142770009115,0.00641509841783,0.0105563699836,-0.0244989915839,0.999623533625
1624378504235651850,0,1624378504235293490,world,cf7,-0.996244966984,1.10207605362,0.013298808597,0.00828146636639,0.00549453996903,-0.00474385161546,0.99993935977
1624378504245566134,0,1624378504245295776,world,cf10,-1.02223920822,0.0507375635207,0.019579840824,-0.0078062519119,0.0184025842626,-0.0596440483556,0.998019536291
1624378504245591696,0,1624378504245318265,world,cf11,2.04190278053,-0.0376016758382,0.00510598253459,-0.00474100791196,0.000461943387839,0.0156347788348,0.99986642265
1624378504245620332,0,1624378504245324341,world,cf12,2.02372431755,1.01894021034,0.0142954401672,0.00677343830564,0.0102611146882,-0.0242345649784,0.999630689765
1624378504245631087,0,1624378504245329649,world,cf7,-0.996271252632,1.10205936432,0.0132760638371,0.00784323382695,0.00594992902897,-0.00519706134636,0.999938034371
1624378504255641056,0,1624378504255402545,world,cf10,-1.02223217487,0.050857719034,0.0194975323975,-0.00627094676671,0.0177565212258,-0.0587008132695,0.998097989028
1624378504255668364,0,1624378504255422869,world,cf11,2.04193353653,-0.0376314818859,0.00513727776706,-0.00430030229602,0.000330369361635,0.015452650145,0.999871298648
1624378504255678282,0,1624378504255429155,world,cf12,2.02375268936,1.01889550686,0.0142857423052,0.00690050083901,0.0110639005633,-0.0243182159005,0.99961922629
1624378504255706218,0,1624378504255435092,world,cf7,-0.996333777905,1.10199296474,0.0132480692118,0.00844339837867,0.00670843476507,-0.00606383707623,0.999923464975
1624378504265562325,0,1624378504265283306,world,cf10,-1.02228581905,0.0505794733763,0.0196401104331,-0.00672411948207,0.0167612261558,-0.0592538103382,0.998079572717
1624378504265594382,0,1624378504265303630,world,cf11,2.0420589447,-0.0375448986888,0.0051616304554,-0.0043513463564,-0.000451520529003,0.0145466935318,0.999884621155
1624378504265619386,0,1624378504265309776,world,cf12,2.02372312546,1.01896262169,0.0143454028293,0.00641644426402,0.0108608977073,-0.0249326715831,0.999609539786
1624378504265692929,0,1624378504265315014,world,cf7,-0.996287703514,1.10214972496,0.0132684782147,0.00883897218523,0.00667563880603,-0.00616210566944,0.999919665209
1624378504275333782,0,1624378504275090523,world,cf10,-1.02218663692,0.0508305542171,0.0194512195885,-0.0080974036975,0.0181550775054,-0.0581495986446,0.99810993853
1624378504275355643,0,1624378504275110917,world,cf11,2.04211759567,-0.0374787561595,0.00514798145741,-0.00336708736949,-0.00109282195189,0.0129907253477,0.99990935065
1624378504275369123,0,1624378504275117132,world,cf12,2.02380037308,1.01900446415,0.0142462998629,0.00682001130859,0.010834874411,-0.0245311833697,0.99961708368
1624378504275395313,0,1624378504275122440,world,cf7,-0.996270775795,1.10218417645,0.0132296616212,0.0084349008001,0.00664173562003,-0.00564706590609,0.999926422515
1624378504285458501,0,1624378504285209095,world,cf10,-1.02224588394,0.0507558621466,0.0196475125849,-0.00673980227191,0.0186052231437,-0.0594427294547,0.998035561817
1624378504285471073,0,1624378504285223203,world,cf11,2.04222178459,-0.0374766103923,0.00517947832122,-0.00261149711641,-0.00143906807979,0.0125716809642,0.999916527518
1624378504285483714,0,1624378504285227115,world,cf12,2.02376103401,1.01904952526,0.01427990105,0.00688498845115,0.0110987034562,-0.0245155489125,0.99961412734
1624378504285503340,0,1624378504285230537,world,cf7,-0.996300697327,1.10211980343,0.0132594658062,0.00793595797056,0.00701338051638,-0.00613813473801,0.999925075377
1624378504295525461,0,1624378504295264531,world,cf10,-1.02216434479,0.0510460697114,0.0194976944476,-0.00675719353984,0.0184379438865,-0.058996441214,0.998065029186
1624378504295564083,0,1624378504295278429,world,cf11,2.04221820831,-0.0374583788216,0.00516611756757,-0.00181871602342,-0.00181641554029,0.0114661732222,0.999930957506
1624378504295584547,0,1624378504295282620,world,cf12,2.02374601364,1.01899719238,0.0142183192074,0.00630393618917,0.0101674598704,-0.0240314321401,0.999639621773
1624378504295625824,0,1624378504295286182,world,cf7,-0.996250152588,1.10209047794,0.0133353611454,0.00630494643286,0.00650493725096,-0.00537216351923,0.999944535112
1624378504305553099,0,1624378504305356773,world,cf10,-1.02216959,0.0507781021297,0.0196260977536,-0.00718324497381,0.0188341924533,-0.0595508296982,0.998021729657
1624378504305584598,0,1624378504305372627,world,cf11,2.04223799706,-0.0373249463737,0.00516133662313,-0.000736175788792,-0.00266837323353,0.0100900361166,0.999945263002
1624378504305595982,0,1624378504305378703,world,cf12,2.0236620903,1.0188896656,0.0142218563706,0.00630203503533,0.00999121940567,-0.0246401898251,0.99962659075
1624378504305604852,0,1624378504305384151,world,cf7,-0.996301472187,1.1021296978,0.013235677965,0.00892199560666,0.00721508345354,-0.0063362385927,0.999914092633
1624378504315675443,0,1624378504315401383,world,cf10,-1.02221930027,0.0507646538317,0.019602663815,-0.0057074671354,0.0173060135196,-0.0583323331194,0.99813088602
1624378504315702123,0,1624378504315426526,world,cf11,2.04234051704,-0.0372908823192,0.00523481750861,-0.000134185175195,-0.00335496082886,0.00946410561699,0.999949577197
1624378504315712529,0,1624378504315434488,world,cf12,2.02381968498,1.01892483234,0.0142262438312,0.00743154405156,0.0109384518517,-0.0244346191573,0.999613961392
1624378504315740117,0,1624378504315440355,world,cf7,-0.996281445026,1.10210263729,0.0132272988558,0.00890963448298,0.00635173509734,-0.0054733279265,0.999925155477
1624378504325549778,0,1624378504325245546,world,cf10,-1.02221560478,0.0508651398122,0.0195689219981,-0.00605943757841,0.0171869547703,-0.059676353419,0.998051413828
1624378504325574502,0,1624378504325268943,world,cf11,2.04238986969,-0.0372273139656,0.00519604422152,0.000241675044553,-0.00332150716754,0.00860643645605,0.999957418311
1624378504325585328,0,1624378504325287521,world,cf12,2.02389097214,1.01880860329,0.0142322694883,0.00709127541895,0.0108771966811,-0.0238022562205,0.999632358922
1624378504325618084,0,1624378504325299395,world,cf7,-0.996242642403,1.10204792023,0.0132779590786,0.0080255613045,0.00618408003065,-0.00518104284318,0.999935250061
1624378504335842257,0,1624378504335577626,world,cf10,-1.02223980427,0.0507967695594,0.0195632725954,-0.0071184498097,0.018835579441,-0.0589897355059,0.998055489301
1624378504335874734,0,1624378504335594179,world,cf11,2.04234433174,-0.0372750721872,0.00522032380104,0.000599800082541,-0.0033278355694,0.00820794418564,0.999960596925
1624378504335904068,0,1624378504335598998,world,cf12,2.02380800247,1.01885795593,0.014256102033,0.00680472294648,0.0106457091876,-0.0245342985381,0.999619143883
1624378504335924671,0,1624378504335602979,world,cf7,-0.996257185936,1.10199797153,0.0133004002273,0.00705934078244,0.00639263023891,-0.00547264791994,0.999939673236
1624378504345553581,0,1624378504345299985,world,cf10,-1.02222025394,0.0507311336696,0.0196264944971,-0.00707356728616,0.017711926345,-0.0593886974604,0.998052721516
1624378504345572648,0,1624378504345318004,world,cf11,2.04237651825,-0.0372522622347,0.00526593858376,0.00109191853617,-0.00392855975082,0.00850551278391,0.999955514203
1624378504345624401,0,1624378504345324639,world,cf12,2.02373147011,1.01888620853,0.0143100433052,0.00744124014754,0.0113839224413,-0.0243568897651,0.999610812354
1624378504345642071,0,1624378504345330576,world,cf7,-0.996283173561,1.10211598873,0.0132232708856,0.0102730141235,0.0061241308731,-0.00586086321256,0.999911301308
1624378504355523390,0,1624378504355247026,world,cf10,-1.02225387096,0.0507505536079,0.0196587741375,-0.00670733527936,0.0183965878305,-0.0587369383066,0.998081434197
1624378504355550699,0,1624378504355273985,world,cf11,2.04236936569,-0.0372164361179,0.00520703149959,0.00097514267427,-0.00356012550564,0.00785898397517,0.999962304777
1624378504355562083,0,1624378504355283553,world,cf12,2.0237865448,1.01896071434,0.0142513597384,0.00764453838277,0.0114235236586,-0.0243520478498,0.999608944491
1624378504355574445,0,1624378504355291445,world,cf7,-0.996319949627,1.10201334953,0.0132866092026,0.00660488251912,0.00655266884954,-0.00652898159083,0.999935403142
1624378504365577708,0,1624378504365325579,world,cf10,-1.02219569683,0.050708822906,0.0195764470845,-0.00727997657862,0.0183253861708,-0.0592058474376,0.998051025645
1624378504365612699,0,1624378504365342830,world,cf11,2.04234814644,-0.0374519266188,0.00522198854014,0.000148852177268,-0.00229460414095,0.00967403289747,0.999950561639
1624378504365643220,0,1624378504365347858,world,cf12,2.02389097214,1.01892447472,0.0138841820881,-0.00117733465829,0.0025767615717,-0.0257847860452,0.999663502881
1624378504365674579,0,1624378504365351839,world,cf7,-0.996294260025,1.10208511353,0.0132241398096,0.00865261993554,0.00659226666477,-0.00605468492806,0.999922504487
1624378504375462450,0,1624378504375233787,world,cf10,-1.02220892906,0.050865329802,0.0194637104869,-0.00623860918435,0.0172730519345,-0.058848620382,0.9980979718
1624378504375496044,0,1624378504375250549,world,cf11,2.04229092598,-0.0374633409083,0.00523747410625,0.000288850839614,-0.00216795673115,0.00999715113927,0.999947635378
1624378504375523282,0,1624378504375254530,world,cf12,2.02392053604,1.01890516281,0.0139098837972,-0.000548765946582,0.00301126535981,-0.0254403264325,0.999671656559
1624378504375549124,0,1624378504375258022,world,cf7,-0.996302545071,1.10207021236,0.0132766598836,0.00723502663189,0.00702240707982,-0.006648120635,0.999927068681
1624378504385517117,0,1624378504385251019,world,cf10,-1.02225613594,0.0507594272494,0.0196449775249,-0.00701209255098,0.0189547595788,-0.0591460395473,0.998044735297
1624378504385542959,0,1624378504385265965,world,cf11,2.04236078262,-0.0373801141977,0.00520550459623,0.000728388505354,-0.00266559101104,0.00855268647337,0.999959606999
1624378504385563842,0,1624378504385270016,world,cf12,2.02387857437,1.0188729763,0.0138849848881,0.000161085928397,0.0036631768072,-0.0259609234214,0.999656233733
1624378504385574807,0,1624378504385273508,world,cf7,-0.996327579021,1.10212492943,0.0133020821959,0.00763811319845,0.00688679105417,-0.00590504433538,0.999929678421
1624378504395693170,0,1624378504395448862,world,cf10,-1.02226388454,0.0507446229458,0.0196053143591,-0.00716275967995,0.0189208932029,-0.058759172613,0.998067159217
1624378504395731304,0,1624378504395476171,world,cf11,2.04229640961,-0.0374741144478,0.00524906907231,0.000433039468111,-0.00225015680488,0.0100015754582,0.999947357494
1624378504395751767,0,1624378504395480222,world,cf12,2.02388644218,1.01888179779,0.0139120938256,-0.000571180771537,0.00310445947392,-0.0255301723439,0.999669068434
1624378504395782707,0,1624378504395484691,world,cf7,-0.99625903368,1.10206663609,0.0132683441043,0.00717439969005,0.00657093991387,-0.00516717509059,0.999939323679
1624378504405497593,0,1624378504405299032,world,cf10,-1.02215993404,0.050841126591,0.0194660834968,-0.00835465652883,0.0179073329088,-0.0586967067651,0.998080269195
1624378504405512050,0,1624378504405322848,world,cf11,2.04238152504,-0.0375355444849,0.00528561230749,-0.000724052730645,-0.00249158548368,0.0104794904368,0.999941722317
1624378504405540476,0,1624378504405329204,world,cf12,2.0238931179,1.01884770393,0.0139196040109,-0.00100247762342,0.00237789779322,-0.0251402321032,0.999680603678
1624378504405559264,0,1624378504405334861,world,cf7,-0.996293008327,1.10217392445,0.0133127970621,0.0073779150294,0.0071517810624,-0.00653637149159,0.999925844373
1624378504415572026,0,1624378504415368296,world,cf10,-1.02219283581,0.0508677363396,0.0196725968271,-0.00622694430475,0.0176886451444,-0.0592147189563,0.998069112866
1624378504415594934,0,1624378504415384081,world,cf11,2.04233694077,-0.0374205671251,0.00530755938962,-8.68582221234e-05,-0.00268767824028,0.00961251010084,0.999950183005
1624378504415615328,0,1624378504415389249,world,cf12,2.02386546135,1.01884710789,0.0139444246888,-0.000677873675559,0.00254580496464,-0.0248636772475,0.999687379593
1624378504415637956,0,1624378504415393649,world,cf7,-0.996262729168,1.10204124451,0.0133197568357,0.00678771453948,0.00643268412996,-0.00535318720382,0.999941943761
1624378504425495879,0,1624378504425196745,world,cf10,-1.02222895622,0.0508448779583,0.0196128766984,-0.00837969589854,0.0202166828329,-0.0583101396564,0.99805861253
1624378504425519485,0,1624378504425217628,world,cf11,2.04220104218,-0.0375243127346,0.00524560175836,-0.000915314510985,-0.00175087847515,0.0109710839308,0.99993786404
1624378504425542184,0,1624378504425223355,world,cf12,2.02387690544,1.01893186569,0.0139683056623,-0.0003745471949,0.00332945133126,-0.0252763677439,0.999674887002
1624378504425581435,0,1624378504425228314,world,cf7,-0.996232092381,1.10218119621,0.013340218924,0.00770863734353,0.00601159675142,-0.00512921566276,0.999939062524
1624378504435440335,0,1624378504435190999,world,cf10,-1.0221811533,0.0506904013455,0.0195528399199,-0.00767363688389,0.0171438378255,-0.0575598208076,0.99816535261
1624378504435452837,0,1624378504435209787,world,cf11,2.04229855537,-0.0374753326178,0.00524021778256,-0.000385310351136,-0.00271527862007,0.00996540475938,0.999946583326
1624378504435481123,0,1624378504435215304,world,cf12,2.02390003204,1.01902961731,0.0139928385615,3.18235332291e-05,0.00409210017255,-0.0258999398477,0.999656164298
1624378504435496628,0,1624378504435219984,world,cf7,-0.996287167072,1.10210776329,0.0133611401543,0.00713148093478,0.00663301707939,-0.00595622358098,0.999934832109
1624378504445496539,0,1624378504445227438,world,cf10,-1.02220344543,0.0507734790444,0.0195724964142,-0.00691306219071,0.018094440937,-0.0579968542336,0.998128832204
1624378504445527269,0,1624378504445248879,world,cf11,2.04227209091,-0.0374497622252,0.00522443884984,0.000436073880527,-0.00228136528525,0.00960703781406,0.999951153825
1624378504445542914,0,1624378504445255514,world,cf12,2.02390408516,1.01897096634,0.0139729799703,0.000113546571465,0.00376674159216,-0.0253248586481,0.999672171414
1624378504445558628,0,1624378504445261171,world,cf7,-0.996294140816,1.10205864906,0.0133422669023,0.00661602187636,0.00622583031954,-0.00581731266302,0.999941811389
1624378504455614693,0,1624378504455329667,world,cf10,-1.02224099636,0.0507373511791,0.0195576976985,-0.00827735848138,0.0191046837582,-0.0578510202058,0.998108088263
1624378504455643886,0,1624378504455351947,world,cf11,2.04225707054,-0.0374150723219,0.00519835716113,-0.000396865205703,-0.00377820841177,0.0100623450345,0.999942156753
1624378504455667144,0,1624378504455358582,world,cf12,2.02386140823,1.01898419857,0.0139820305631,-0.000349936199735,0.00369820426092,-0.0256404025616,0.999664328956
1624378504455689144,0,1624378504455364309,world,cf7,-0.996350169182,1.10197806358,0.0133269540966,0.00564918144921,0.00582203351904,-0.00596247882347,0.999949318476
1624378504465594908,0,1624378504465411224,world,cf10,-1.02220499516,0.0506961345673,0.0195239037275,-0.0070546614342,0.0173893683487,-0.0580189826867,0.998139088138
1624378504465608667,0,1624378504465430989,world,cf11,2.0422141552,-0.0375073216856,0.00525009119883,-0.000236086742236,-0.00244083843485,0.010450381106,0.999942386393
1624378504465618934,0,1624378504465437135,world,cf12,2.02382564545,1.01889276505,0.0139837823808,0.000670855032989,0.0041269346958,-0.0251023539505,0.999676142653
1624378504465647010,0,1624378504465441675,world,cf7,-0.996283888817,1.10210835934,0.0134077500552,0.00584352684165,0.00655528455059,-0.0057214812059,0.999945071537
1624378504475226612,0,1624378504475021905,world,cf10,-1.02215790749,0.0507170148194,0.0195419453084,-0.00490300437771,0.0151518113711,-0.0593297093636,0.99811140097
1624378504475247285,0,1624378504475043486,world,cf11,2.0421898365,-0.0374422483146,0.00521411001682,0.000157231827696,-0.00268379154627,0.0101043683711,0.999945335646
1624378504475264466,0,1624378504475049912,world,cf12,2.02383327484,1.01897311211,0.0140350973234,0.00113780391829,0.00484503724235,-0.0250810260437,0.999673033121
1624378504475275152,0,1624378504475055639,world,cf7,-0.996318340302,1.1020206213,0.0132997501642,0.00650012729277,0.00594526811739,-0.00580778069029,0.999944334358
1624378504485546749,0,1624378504485284841,world,cf10,-1.02222895622,0.0507911555469,0.0196282994002,-0.0063430982002,0.0179686523248,-0.0591154940685,0.998069261625
1624378504485571752,0,1624378504485306562,world,cf11,2.04211330414,-0.0374186709523,0.00519110169262,-0.000314711397365,-0.00323386824529,0.0103751786828,0.999940897614
1624378504485591308,0,1624378504485313057,world,cf12,2.02381849289,1.01900243759,0.0140888849273,0.00225058310918,0.00635461499423,-0.0254000775322,0.999654635264
1624378504485619943,0,1624378504485318784,world,cf7,-0.996307015419,1.10211193562,0.0133315101266,0.00676584518445,0.00654254756023,-0.0054701831741,0.999940745998
1624378504495776650,0,1624378504495538977,world,cf10,-1.02229130268,0.0508236326277,0.0194388944656,-0.00553598383265,0.016630699517,-0.0587668518592,0.998117843663
1624378504495817228,0,1624378504495561676,world,cf11,2.0421872139,-0.0374264791608,0.00522912060842,-0.000506384582267,-0.0030466061597,0.0102025753344,0.999943182997
1624378504495832523,0,1624378504495568101,world,cf12,2.02384591103,1.01897799969,0.0140936691314,0.00335087180628,0.00718279732775,-0.0246117260973,0.99966566512
1624378504495879317,0,1624378504495573898,world,cf7,-0.996358394623,1.10207235813,0.0133086442947,0.00749556747257,0.00639078516595,-0.00649145088909,0.999930415278
1624378504505584984,0,1624378504505360302,world,cf10,-1.02215909958,0.0507256388664,0.0196558292955,-0.00570995347982,0.0166450567587,-0.0591307418379,0.998095132683
1624378504505606426,0,1624378504505377623,world,cf11,2.04207253456,-0.037365552038,0.00521293794736,-0.00123397007931,-0.00363473021363,0.0114768467039,0.999926771341
1624378504505634642,0,1624378504505383909,world,cf12,2.02372717857,1.01893723011,0.01414169278,0.00330192598292,0.00743173534251,-0.0251051711011,0.999651737846
1624378504505715170,0,1624378504505389287,world,cf7,-0.99629420042,1.10210728645,0.0133462427184,0.00671367177263,0.00598812536894,-0.00561701473437,0.999943757474
1624378504515595860,0,1624378504515298054,world,cf10,-1.02220785618,0.0509298183024,0.019588528201,-0.00694057490367,0.0189996158286,-0.057497699251,0.998140700302
1624378504515622191,0,1624378504515320194,world,cf11,2.04210639,-0.0373595058918,0.00522682536393,-0.000861794127991,-0.00279678807367,0.0104877718639,0.999940719207
1624378504515632946,0,1624378504515326899,world,cf12,2.02371311188,1.01889646053,0.01418952737,0.00516626847191,0.00900840112598,-0.0246598610228,0.999641960721
1624378504515652083,0,1624378504515332626,world,cf7,-0.996308028698,1.10216248035,0.0133760776371,0.00709818199895,0.0061310468261,-0.00570725687673,0.999939724831
1624378504525241812,0,1624378504525065531,world,cf10,-1.02214169502,0.0509880110621,0.0195649079978,-0.00730628241015,0.0197413340254,-0.0568147003776,0.998162806254
1624378504525255361,0,1624378504525078661,world,cf11,2.0420935154,-0.0373846888542,0.00523107498884,-0.00135290831694,-0.00397972993753,0.0110906157179,0.999929662342
1624378504525261857,0,1624378504525084807,world,cf12,2.02379274368,1.01899802685,0.014215704985,0.00588925558273,0.00949750100322,-0.0242971443846,0.999642317491
1624378504525300759,0,1624378504525089906,world,cf7,-0.996367156506,1.10218298435,0.0134007548913,0.00652626712239,0.00665650327056,-0.00667777095276,0.999934250927
1624378504535487357,0,1624378504535201913,world,cf10,-1.02227985859,0.0507314018905,0.0196012966335,-0.00635658221589,0.016752642097,-0.0588760578018,0.998104479833
1624378504535513339,0,1624378504535218256,world,cf11,2.04209327698,-0.0373733378947,0.00521680526435,-0.000662194165555,-0.00356566910321,0.011061622896,0.999932241705
1624378504535526050,0,1624378504535223285,world,cf12,2.02369451523,1.01897525787,0.0142625700682,0.00563536821455,0.00951915241501,-0.0250316636661,0.999625451945
1624378504535549377,0,1624378504535228244,world,cf7,-0.996381878853,1.10204482079,0.0133686410263,0.00592205476136,0.00678346433121,-0.00656988832011,0.999937873293
1624378504545551244,0,1624378504545237094,world,cf10,-1.02214801311,0.0510600693524,0.0195004139096,-0.00510708484166,0.0170923753753,-0.0579491304771,0.998160140792
1624378504545573663,0,1624378504545251272,world,cf11,2.04240441322,-0.0374434962869,0.00531824957579,-0.000310436128907,-0.00260663944707,0.0101716315125,0.999944821964
1624378504545621086,0,1624378504545255393,world,cf12,2.023832798,1.01907932758,0.0142678888515,0.00671337714115,0.0109389756819,-0.0243195587174,0.99962184272
1624378504545632610,0,1624378504545258815,world,cf7,-0.996388673782,1.1021219492,0.0133962472901,0.00665896046223,0.00629728460746,-0.00652079131055,0.999936738865
1624378504555305590,0,1624378504555000939,world,cf10,-1.0222247839,0.0509514883161,0.0194832552224,-0.00809453500963,0.0195208652719,-0.0577093981877,0.998109733287
1624378504555330873,0,1624378504555029295,world,cf11,2.04233312607,-0.0375374890864,0.00530153699219,-0.0011730529602,-0.00269981129825,0.0104721721488,0.999940832538
1624378504555365585,0,1624378504555044241,world,cf12,2.02370595932,1.01886928082,0.0142729962245,0.00556679077967,0.00945763396602,-0.024393046624,0.999642207631
1624378504555386048,0,1624378504555053181,world,cf7,-0.996335983276,1.10207152367,0.0133792776614,0.00716357985833,0.00616771339512,-0.0059683302755,0.999937508782
1624378504565311578,0,1624378504565054140,world,cf10,-1.02225482464,0.0507050342858,0.0195559300482,-0.00716636051897,0.0179793201739,-0.058998495456,0.998070420791
1624378504565350968,0,1624378504565069296,world,cf11,2.04233360291,-0.037500679493,0.00527387112379,-1.0118780466e-05,-0.00227669831545,0.009548541902,0.999951819784
1624378504565369686,0,1624378504565073346,world,cf12,2.02370333672,1.01891684532,0.0142695745453,0.0058089297667,0.00966549919831,-0.0246921194097,0.999631498953
1624378504565412080,0,1624378504565076839,world,cf7,-0.996385335922,1.10208845139,0.0133528057486,0.00820278085629,0.00670244861462,-0.00690452186179,0.999920056378
1624378504575297311,0,1624378504575042876,world,cf10,-1.02221596241,0.0507165454328,0.0196095779538,-0.00581030497862,0.0181075501193,-0.0587419529014,0.99809204984
1624378504575320219,0,1624378504575055797,world,cf11,2.04240036011,-0.0374015495181,0.00526641355827,-0.000320710762864,-0.00301901248442,0.0095046012764,0.999950221392
1624378504575327902,0,1624378504575059778,world,cf12,2.0237455368,1.01896333694,0.0142497271299,0.00651367024432,0.0104448648832,-0.024292599997,0.99962910446
1624378504575360727,0,1624378504575063270,world,cf7,-0.996306836605,1.10215997696,0.0133778173476,0.00729514036698,0.00629870486261,-0.00576815694647,0.999936915815
1624378504585420004,0,1624378504585088394,world,cf10,-1.0222312212,0.0508025735617,0.0194216426462,-0.00651491569177,0.0169331970541,-0.0591968108147,0.998081439713
1624378504585453458,0,1624378504585118636,world,cf11,2.04232645035,-0.0375138558447,0.00524559477344,0.000228689461422,-0.00242186735432,0.00966874145148,0.999950297614
1624378504585467497,0,1624378504585134210,world,cf12,2.02370524406,1.01901745796,0.0142586585134,0.00668161032927,0.0110299297959,-0.0250163002484,0.999603862264
1624378504585485516,0,1624378504585145246,world,cf7,-0.996330499649,1.10195887089,0.0133125083521,0.00542925059055,0.00597181816144,-0.00574375961732,0.999950933722
1624378504595417261,0,1624378504595105067,world,cf10,-1.0222619772,0.0506184585392,0.0195817966014,-0.00632961763855,0.0166916609713,-0.0597237700392,0.998055306928
1624378504595444500,0,1624378504595128814,world,cf11,2.04225802422,-0.037444960326,0.00524234445766,0.000280631451555,-0.00174811382248,0.0101325151378,0.999947097341
1624378504595456233,0,1624378504595135030,world,cf12,2.02373552322,1.01901745796,0.0142521420494,0.00625528635323,0.0102090752946,-0.0244533664613,0.999629270801
1624378504595481516,0,1624378504595140407,world,cf7,-0.996263742447,1.10207271576,0.0131672769785,0.00914005202516,0.00599202149283,-0.00534607291013,0.999925984577
1624378504605407604,0,1624378504605154566,world,cf10,-1.02227711678,0.0506363585591,0.0195740964264,-0.00622972424984,0.0166315137819,-0.0592948196461,0.998082515451
1624378504605451185,0,1624378504605174611,world,cf11,2.04236602783,-0.0374252572656,0.00526767736301,-0.000642506277335,-0.00367715272726,0.0091440573495,0.999951224785
1624378504605461801,0,1624378504605180617,world,cf12,2.02369403839,1.01906144619,0.0143074057996,0.00579557251923,0.0102285167114,-0.0247730523919,0.999623971631
1624378504605492392,0,1624378504605185925,world,cf7,-0.996309578419,1.10220944881,0.0131491404027,0.0105907954699,0.00737194906143,-0.00625354892281,0.999897185987
1624378504615647492,0,1624378504615351851,world,cf10,-1.02228677273,0.050920240581,0.0194917805493,-0.00485622827962,0.0163958386505,-0.0603682686483,0.998029691774
1624378504615692820,0,1624378504615375527,world,cf11,2.04230999947,-0.0375467017293,0.00527273397893,-0.00032566914831,-0.00256286066372,0.00953334546968,0.999951219315
1624378504615705182,0,1624378504615382162,world,cf12,2.02368068695,1.0189781189,0.0142686245963,0.0074229864902,0.01122493025,-0.0248481297671,0.999600655592
1624378504615741011,0,1624378504615387889,world,cf7,-0.996264517307,1.10212850571,0.0132259028032,0.00756747037807,0.00600362239201,-0.00477592690516,0.999941938531
1624378504625474614,0,1624378504625133994,world,cf10,-1.02208924294,0.0509757436812,0.0195602010936,-0.00601039926877,0.0180832261425,-0.0580494261467,0.998131823036
1624378504625504227,0,1624378504625157252,world,cf11,2.04233980179,-0.0375353842974,0.00528946891427,-0.000530158454767,-0.00207999113519,0.00964596391276,0.999951172782
1624378504625533351,0,1624378504625175620,world,cf12,2.02383971214,1.01883518696,0.0142344031483,0.00718821590632,0.0106550511781,-0.0236173050407,0.999638445809
1624378504625552837,0,1624378504625187773,world,cf7,-0.996243476868,1.10214781761,0.0133004402742,0.00814622735267,0.00663339720418,-0.00526050106676,0.999930979693
1624378504635620006,0,1624378504635293145,world,cf10,-1.02224802971,0.05082654953,0.019543338567,-0.00708899290478,0.0184075706139,-0.058375028349,0.998099826465
1624378504635643613,0,1624378504635314238,world,cf11,2.04229474068,-0.0374496281147,0.00528758019209,0.00024274133787,-0.00277405483659,0.00925943239917,0.999953253211
1624378504635654857,0,1624378504635321222,world,cf12,2.02382183075,1.0188883543,0.0142566459253,0.00715463944448,0.0109635360206,-0.024168348277,0.999622180103
1624378504635678603,0,1624378504635326669,world,cf7,-0.996331691742,1.10223770142,0.0132407350466,0.0100909505896,0.00755762706443,-0.00701715265007,0.999895901861
1624378504645456417,0,1624378504645156166,world,cf10,-1.02230322361,0.0508528053761,0.0196022503078,-0.00702592227515,0.0196898675314,-0.0598454036221,0.997988713963
1624378504645478696,0,1624378504645176141,world,cf11,2.04231643677,-0.0374186374247,0.00523133901879,0.00064617745179,-0.00216449961917,0.00945577405728,0.99995274175
1624378504645499719,0,1624378504645182357,world,cf12,2.02379512787,1.01890897751,0.0142273148522,0.00673668406581,0.0105824013243,-0.0243843679971,0.999623945525
1624378504645524583,0,1624378504645187665,world,cf7,-0.996265351772,1.10217499733,0.0132992481813,0.00793506193874,0.00679348585845,-0.00603828058431,0.999927208605
1624378504655398150,0,1624378504655101111,world,cf10,-1.02222263813,0.0506689362228,0.0197013989091,-0.00759516189811,0.0189274865903,-0.0587891339539,0.998062072967
1624378504655431813,0,1624378504655132121,world,cf11,2.04236984253,-0.037516631186,0.00528923608363,-0.000764515478125,-0.00278171568924,0.00941313423739,0.999951534064
1624378504655452696,0,1624378504655146439,world,cf12,2.02381277084,1.01885998249,0.0142416488379,0.00676033850513,0.0108416008917,-0.0242277707041,0.999624815939
1624378504655464360,0,1624378504655155798,world,cf7,-0.996262490749,1.10202848911,0.0133888777345,0.0062278109335,0.00675885805613,-0.00566517288315,0.999941717314
1624378504665550526,0,1624378504665236097,world,cf10,-1.02223396301,0.0508625283837,0.0196213740855,-0.00654481089385,0.0204975368319,-0.0589529328826,0.998028841336
1624378504665574621,0,1624378504665259773,world,cf11,2.04230213165,-0.0375095941126,0.00527029903606,3.82871282949e-05,-0.00218177929584,0.0106950492228,0.999940425373
1624378504665587472,0,1624378504665266688,world,cf12,2.02378129959,1.01887893677,0.0142850009724,0.00770222854312,0.0115328821236,-0.0250297149229,0.999590506996
1624378504665615479,0,1624378504665272415,world,cf7,-0.996273040771,1.10209369659,0.0133068561554,0.00777134146347,0.00714228848872,-0.00589688624459,0.999926907679
1624378504675330434,0,1624378504675082565,world,cf10,-1.02223932743,0.0507049188018,0.0196022950113,-0.00787113996804,0.0189558197265,-0.0595838701444,0.998012266695
1624378504675370733,0,1624378504675103238,world,cf11,2.04236292839,-0.0374753363431,0.00524542573839,0.00035894810938,-0.0027389587183,0.00937193641701,0.999952266895
1624378504675387216,0,1624378504675109384,world,cf12,2.02379965782,1.01888465881,0.0142870210111,0.00755138687857,0.0114262792096,-0.0245511063768,0.999604751827
1624378504675404327,0,1624378504675114832,world,cf7,-0.996252775192,1.10211002827,0.013269526884,0.00844332662761,0.00632671774399,-0.00555959665811,0.999928884353
1624378504685692057,0,1624378504685416600,world,cf10,-1.02214825153,0.0508266612887,0.019568188116,-0.00559561935714,0.0176483635886,-0.059558000762,0.998053139293
1624378504685713359,0,1624378504685444607,world,cf11,2.04230189323,-0.0375002883375,0.00528969801962,0.000666171678038,-0.00257263082848,0.0100798953953,0.999945665271
1624378504685731378,0,1624378504685452429,world,cf12,2.02375626564,1.0189486742,0.0142906419933,0.00650705240375,0.0111414554403,-0.0250113469512,0.999603900934
1624378504685752121,0,1624378504685458366,world,cf7,-0.996279597282,1.10209095478,0.0132478158921,0.00779797032424,0.00634589595897,-0.00542954580492,0.999934718517
1624378504695625339,0,1624378504695280319,world,cf10,-1.02223610878,0.05085413903,0.0195961259305,-0.00599698020714,0.019383110004,-0.0591190342474,0.99804472398
1624378504695658095,0,1624378504695303158,world,cf11,2.04228782654,-0.0374793857336,0.00521319219843,0.000488947088327,-0.00206592842383,0.00966834278681,0.999951006809
1624378504695677790,0,1624378504695309374,world,cf12,2.02372431755,1.01890099049,0.0142594436184,0.00702078985648,0.0106461572582,-0.024637746368,0.999615100576
1624378504695725493,0,1624378504695314612,world,cf7,-0.996307134628,1.10211789608,0.0132059380412,0.0087566776916,0.00654371041558,-0.00562457046406,0.999924429473
1624378504705407064,0,1624378504705117219,world,cf10,-1.02228534222,0.0507711358368,0.0195805281401,-0.00625537415489,0.0183489523589,-0.0579354899524,0.998132088075
1624378504705430391,0,1624378504705132026,world,cf11,2.04226875305,-0.0375441648066,0.00523092318326,0.00035893223411,-0.00207801879173,0.00969298995061,0.999950798265
1624378504705475579,0,1624378504705136146,world,cf12,2.02378058434,1.01886236668,0.0142271770164,0.00740674751433,0.0112873540548,-0.0244935027177,0.999608825518
1624378504705510500,0,1624378504705139639,world,cf7,-0.996318101883,1.1021323204,0.0131706111133,0.00858777001688,0.00633472612451,-0.00588939468531,0.999925715482
1624378504715406137,0,1624378504715146534,world,cf10,-1.02222335339,0.05082654953,0.0196336079389,-0.00709652777329,0.0185955226975,-0.0591370700498,0.998051427921
1624378504715441337,0,1624378504715170350,world,cf11,2.04237413406,-0.037437889725,0.00528985355049,0.000349612084522,-0.002657659996,0.00964306927134,0.99994991166
1624378504715454118,0,1624378504715177404,world,cf12,2.0237903595,1.0188959837,0.0141991106793,0.00606486712272,0.0100640402901,-0.0243228841075,0.999635098318
1624378504715471718,0,1624378504715182991,world,cf7,-0.99629098177,1.10214781761,0.0132465986535,0.00763000605274,0.00619073640022,-0.00518906915469,0.99993826377
1624378504725454937,0,1624378504725153289,world,cf10,-1.02223789692,0.0506876111031,0.0196320880204,-0.00789944459159,0.01999534677,-0.0586472156731,0.998047237848
1624378504725480709,0,1624378504725177175,world,cf11,2.04225063324,-0.0375536121428,0.00524369254708,-0.000266422844594,-0.00249073288292,0.0102997583193,0.999943818545
1624378504725501661,0,1624378504725186394,world,cf12,2.02377080917,1.01889276505,0.0142479129136,0.00704501669507,0.010949570796,-0.0244592169903,0.999616036958
1624378504725532252,0,1624378504725193937,world,cf7,-0.996279716492,1.10201835632,0.0131957260892,0.00869568800886,0.0068575995266,-0.00592339964054,0.999921132728
1624378504735279824,0,1624378504735051580,world,cf10,-1.02225756645,0.0508164428174,0.0196301601827,-0.00677541493377,0.0187230200453,-0.058271731295,0.998102172929
1624378504735310904,0,1624378504735071904,world,cf11,2.04232096672,-0.0374946780503,0.00524746347219,-0.000246466225435,-0.00261457800629,0.00937374311197,0.999952616966
1624378504735340377,0,1624378504735077701,world,cf12,2.02380442619,1.01888418198,0.0142115345225,0.00710240053229,0.0108963493291,-0.0236066412252,0.999636709994
1624378504735393317,0,1624378504735083289,world,cf7,-0.99629175663,1.1021232605,0.0132554322481,0.00853110315396,0.00667921612463,-0.00597740633698,0.999923436551
1624378504745625034,0,1624378504745388270,world,cf10,-1.02221119404,0.0508525855839,0.0196591131389,-0.00660625245633,0.0189415758276,-0.059122507048,0.998049148737
1624378504745661212,0,1624378504745412086,world,cf11,2.04236078262,-0.0374684408307,0.00529695767909,0.000134043917213,-0.00275321696143,0.00953408222078,0.99995075034
1624378504745686355,0,1624378504745418302,world,cf12,2.02378249168,1.01888382435,0.0142122991383,0.00626356908006,0.0101481519116,-0.0245081580685,0.999628497445
1624378504745705632,0,1624378504745423610,world,cf7,-0.99620950222,1.1020898819,0.0132660120726,0.00826247020571,0.00616942287668,-0.00483774291364,0.999935130921
1624378504755286072,0,1624378504755079200,world,cf10,-1.02221119404,0.0508185774088,0.0195678044111,-0.00861916947354,0.0202153729443,-0.0589156470299,0.998021039432
1624378504755310586,0,1624378504755094495,world,cf11,2.04228758812,-0.0375167615712,0.00523375580087,9.63552583846e-05,-0.00192942165795,0.00974627854336,0.999950637833
1624378504755354377,0,1624378504755098825,world,cf12,2.02375555038,1.01889419556,0.0142700076103,0.00649001197572,0.0105295215454,-0.0245501801656,0.999622077374
1624378504755387692,0,1624378504755102806,world,cf7,-0.996224880219,1.10204124451,0.0133204022422,0.00797574869225,0.00643121586976,-0.00533194603922,0.999933296399
1624378504765480143,0,1624378504765216001,world,cf10,-1.02231311798,0.0507275275886,0.0195964127779,-0.00703530100037,0.0172238366911,-0.0597612591394,0.998039295767
1624378504765501026,0,1624378504765242681,world,cf11,2.04194140434,-0.0375602021813,0.00505064474419,-0.00459709914643,-2.57296967017e-05,0.0153485074726,0.999871636429
1624378504765511642,0,1624378504765249665,world,cf12,2.02371048927,1.01891601086,0.0142598450184,0.00649995576906,0.0107128562171,-0.0247437502071,0.999615292056
1624378504765528684,0,1624378504765254763,world,cf7,-0.99629598856,1.10215365887,0.0132997948676,0.00833595817239,0.00692901242911,-0.00596443372958,0.99992346013
1624378504775546963,0,1624378504775249925,world,cf10,-1.02215969563,0.0508532524109,0.0195027943701,-0.00659155237554,0.0175685490686,-0.0586894301131,0.998099919003
1624378504775586494,0,1624378504775273043,world,cf11,2.0419075489,-0.0375986099243,0.00511511927471,-0.00489523583605,-0.000262038809125,0.0161146799601,0.999858132483
1624378504775623301,0,1624378504775279817,world,cf12,2.02366018295,1.01902592182,0.0142964618281,0.00677664712666,0.0113424248158,-0.0256666874484,0.999583236959
1624378504775659129,0,1624378504775285405,world,cf7,-0.996273458004,1.10220563412,0.0132258366793,0.00927898757024,0.00634061407888,-0.00560329716957,0.999921146923
1624378504785463413,0,1624378504785217360,world,cf10,-1.02221882343,0.05090290308,0.01951370202,-0.00760788859537,0.0186504818819,-0.0586467658783,0.998075566482
1624378504785497705,0,1624378504785238592,world,cf11,2.04198217392,-0.0375277176499,0.00503785116598,-0.00539026729172,-0.000618735961509,0.0152548074836,0.999868917925
1624378504785525852,0,1624378504785245227,world,cf12,2.02372312546,1.01891171932,0.0142388856038,0.00626849913824,0.0103172821241,-0.0246201276587,0.999623983767
1624378504785555535,0,1624378504785251023,world,cf7,-0.996268332005,1.10213840008,0.0132421748713,0.00841011307259,0.00632960127047,-0.00522796213033,0.999930934894
1624378504795469261,0,1624378504795246534,world,cf10,-1.02226388454,0.0506495349109,0.0195547528565,-0.00733233147019,0.0173184386659,-0.0585845706389,0.998105283365
1624378504795500829,0,1624378504795268255,world,cf11,2.041857481,-0.0376316718757,0.00505466945469,-0.0055993903298,0.00015200239649,0.0156493822489,0.999861850737
1624378504795568786,0,1624378504795274471,world,cf12,2.02368855476,1.01892900467,0.014266085811,0.00713978800109,0.010874047863,-0.0244342069794,0.999616800599
1624378504795587503,0,1624378504795279779,world,cf7,-0.996243000031,1.10208714008,0.0132687650621,0.00788535156824,0.00586239465818,-0.00504518659462,0.999938997965
1624378504805268935,0,1624378504805006818,world,cf10,-1.02229261398,0.0507376976311,0.0196441393346,-0.00651016264684,0.0185045206531,-0.0596768289994,0.998024987953
1624378504805434949,0,1624378504805031961,world,cf11,2.04190564156,-0.0375653170049,0.00507149705663,-0.00453324058508,-0.000879406116721,0.0150139416083,0.999876621355
1624378504805462676,0,1624378504805041320,world,cf12,2.02368283272,1.01898694038,0.0142487296835,0.00682780325985,0.0108938858678,-0.0244149227961,0.999619235458
1624378504805478670,0,1624378504805048513,world,cf7,-0.996270239353,1.10208654404,0.0132246613503,0.00771543199468,0.00609580382528,-0.00485657389688,0.999939861679
1624378504815319202,0,1624378504815074126,world,cf10,-1.02221500874,0.0507680624723,0.0195489898324,-0.00572786682654,0.0177317937264,-0.0584868022952,0.998114256481
1624378504815354193,0,1624378504815098152,world,cf11,2.04194092751,-0.0376238003373,0.00498497672379,-0.00494525948402,-0.000199103187211,0.0149408660962,0.999876129972
1624378504815386390,0,1624378504815104647,world,cf12,2.02388381958,1.01884257793,0.0141393877566,0.00771952120655,0.0112803426381,-0.0235566881773,0.999629053852
1624378504815404828,0,1624378504815111771,world,cf7,-0.996271967888,1.10211026669,0.0132296346128,0.00843337001481,0.00638092828664,-0.00535558356427,0.999929737406
1624378504825333081,0,1624378504825105466,world,cf10,-1.0222016573,0.0508018173277,0.0195712242275,-0.00729573546918,0.0188539284368,-0.0583077319733,0.998093938474
1624378504825369748,0,1624378504825126768,world,cf11,2.0419421196,-0.0376429632306,0.0050867642276,-0.0049135809561,-0.000725249510275,0.0151654785722,0.99987266139
1624378504825380923,0,1624378504825134939,world,cf12,2.02384853363,1.01885545254,0.0142292408273,0.00659661375069,0.0108296034232,-0.0244476090183,0.999620687456
1624378504825396987,0,1624378504825142622,world,cf7,-0.996239960194,1.10200119019,0.0132899144664,0.00733195102948,0.00605477437076,-0.00461360298311,0.999944146875
1624378504835457102,0,1624378504835189327,world,cf10,-1.02223026752,0.0508152917027,0.0195738915354,-0.00560791220149,0.0175225097805,-0.0578282687086,0.998157003838
1624378504835493559,0,1624378504835212794,world,cf11,2.04203248024,-0.0374818406999,0.00507716927677,-0.00503310055963,-0.00102039323213,0.0146378932697,0.999879672149
1624378504835513813,0,1624378504835221036,world,cf12,2.02376794815,1.01892507076,0.0142167825252,0.00644252129974,0.0105738110071,-0.0250514375774,0.999609480705
1624378504835538887,0,1624378504835228648,world,cf7,-0.996288478374,1.10205590725,0.0132844839245,0.00760046634226,0.00666166151131,-0.00599925320025,0.999930929684
1624378504845531813,0,1624378504845215708,world,cf10,-1.02218282223,0.0511337220669,0.0195272788405,-0.00680429850289,0.020571902072,-0.0559243141294,0.998199864484
1624378504845565058,0,1624378504845237918,world,cf11,2.0420088768,-0.0374826043844,0.00508442847058,-0.00462959002007,-0.000789196277966,0.013922915605,0.999892042416
1624378504845582100,0,1624378504845244134,world,cf12,2.02378582954,1.01891052723,0.0142096066847,0.00698632599457,0.0108078456212,-0.0239375752525,0.999630618885
1624378504845596208,0,1624378504845249372,world,cf7,-0.99629086256,1.10216295719,0.0132710998878,0.00778695724537,0.00633111656004,-0.00567028171215,0.999933561876
1624378504855541502,0,1624378504855236293,world,cf10,-1.02223610878,0.0508605912328,0.0195598341525,-0.00810457785404,0.0205701221966,-0.0584369949046,0.998046243176
1624378504855576144,0,1624378504855256337,world,cf11,2.04196023941,-0.0375314168632,0.00507177505642,-0.00447997160184,-0.00110940178399,0.0144585050738,0.999884818723
1624378504855622310,0,1624378504855262414,world,cf12,2.02374863625,1.01890623569,0.0142571534961,0.00690802611521,0.0111225406625,-0.0251794738909,0.999597200056
1624378504855652342,0,1624378504855267722,world,cf7,-0.996222198009,1.10214936733,0.0132866259664,0.00813432329793,0.00578160732603,-0.00449184335257,0.999940112779
1624378504865563972,0,1624378504865272592,world,cf10,-1.02221655846,0.0508290044963,0.0195682663471,-0.00814341362415,0.0193950249998,-0.0593483173573,0.998015678758
1624378504865608811,0,1624378504865295919,world,cf11,2.04211711884,-0.0376419462264,0.00514277117327,-0.00318610741916,-0.00107812486972,0.0131329457945,0.999908101828
1624378504865625224,0,1624378504865324554,world,cf12,2.02374172211,1.01886224747,0.0142285199836,0.00731574573365,0.0108448679084,-0.0244259038575,0.999616048253
1624378504865643732,0,1624378504865334402,world,cf7,-0.996258735657,1.10202431679,0.0132154831663,0.00834148679905,0.00571679479598,-0.00499933972035,0.999936370204
1624378504875550264,0,1624378504875298554,world,cf10,-1.02220451832,0.0507775768638,0.0194878149778,-0.00645325752339,0.017412163327,-0.0581487343043,0.998135209646
1624378504875575827,0,1624378504875315595,world,cf11,2.04202508926,-0.0375725738704,0.00516455434263,-0.00255765047067,-0.0014630225655,0.0126996162874,0.999915015256
1624378504875606138,0,1624378504875319995,world,cf12,2.02372646332,1.01892638206,0.0142644280568,0.00691554093624,0.0114025138915,-0.0249447265082,0.999599879247
1624378504875634703,0,1624378504875323557,world,cf7,-0.996298313141,1.10210967064,0.0132758626714,0.00770320348197,0.00633184826054,-0.00545220200743,0.999935418838
1624378504885324865,0,1624378504885095085,world,cf10,-1.02230644226,0.0507752411067,0.0195710938424,-0.00718948598828,0.0189263331425,-0.0595494008926,0.998020026882
1624378504885346865,0,1624378504885117574,world,cf11,2.04214024544,-0.0374920107424,0.00517084402964,-0.00168085333203,-0.00185224986627,0.0117251902425,0.999928129325
1624378504885356783,0,1624378504885123790,world,cf12,2.0237724781,1.01898360252,0.0142795406282,0.00697312216765,0.0114370070966,-0.0252154392131,0.999592292918
1624378504885412447,0,1624378504885128679,world,cf7,-0.996303677559,1.10212755203,0.0132765378803,0.00889043687985,0.00728692573261,-0.00638164387689,0.999913563998
1624378504895319189,0,1624378504895047294,world,cf10,-1.02215492725,0.0508500374854,0.019497808069,-0.00774618816678,0.018258674534,-0.0574959121346,0.998148705084
1624378504895337417,0,1624378504895061472,world,cf11,2.04217219353,-0.0375165753067,0.00519680138677,-0.00189959373649,-0.00219621857857,0.0106658497484,0.999938902042
1624378504895355227,0,1624378504895065662,world,cf12,2.02381658554,1.01878917217,0.0141805913299,0.00710352709263,0.0107763271856,-0.0238611944589,0.99963195931
1624378504895375970,0,1624378504895069364,world,cf7,-0.99631780386,1.10211789608,0.01329636015,0.00794454766313,0.00701523440622,-0.00676993288479,0.999920916202
1624378504905397882,0,1624378504905117745,world,cf10,-1.02222108841,0.0506746582687,0.0195002555847,-0.00751141751915,0.0161750524476,-0.0590187471003,0.998097557244
1624378504905441044,0,1624378504905130736,world,cf11,2.04217267036,-0.0375706925988,0.00520764477551,-0.00152066024513,-0.00143041508736,0.0119171589999,0.999926808735
1624378504905457666,0,1624378504905134787,world,cf12,2.02372837067,1.01898264885,0.0142644969746,0.0063627976804,0.0111856022638,-0.0252434834361,0.999598501225
1624378504905482251,0,1624378504905138209,world,cf7,-0.996346414089,1.1021887064,0.0132671995088,0.00821005181398,0.00735821436053,-0.00727765588905,0.999912739921
1624378504915401424,0,1624378504915137701,world,cf10,-1.02223002911,0.0509428158402,0.019575946033,-0.00652550099634,0.0191437020315,-0.0579555841159,0.998114265392
1624378504915429501,0,1624378504915152787,world,cf11,2.04222846031,-0.0374978557229,0.00522134732455,-0.000283672353611,-0.00197266435056,0.0101892453006,0.99994610225
1624378504915474549,0,1624378504915156908,world,cf12,2.02373528481,1.01889276505,0.0142323821783,0.00688632517317,0.0104989547045,-0.023964989451,0.999633947881
1624378504915494594,0,1624378504915160539,world,cf7,-0.996258020401,1.10216343403,0.0133239366114,0.00678302862925,0.00633430483794,-0.00481353096957,0.999945347019
1624378504925622525,0,1624378504925359849,world,cf10,-1.02222585678,0.0508630275726,0.0196283347905,-0.00797923383346,0.0192164855244,-0.05863296675,0.998062740373
1624378504925659961,0,1624378504925375424,world,cf11,2.04234623909,-0.0375022776425,0.00522976974025,-0.00120650257069,-0.00234419041372,0.0101393090335,0.999945120262
1624378504925677840,0,1624378504925379615,world,cf12,2.02377343178,1.01888895035,0.0142188807949,0.00644641693927,0.0104052256532,-0.024077519714,0.999635157461
1624378504925697047,0,1624378504925383177,world,cf7,-0.996253073215,1.10211968422,0.0133182834834,0.00800194475401,0.00646635825056,-0.00499802580794,0.999934585275
1624378504935524867,0,1624378504935267429,world,cf10,-1.02219510078,0.0508484616876,0.0196191109717,-0.00566673087675,0.0193587707555,-0.057860213766,0.998120895392
1624378504935546867,0,1624378504935281887,world,cf11,2.04234552383,-0.0375972911716,0.00527740363032,-0.00111803180152,-0.00186348276655,0.0103825862094,0.999943738088
1624378504935559578,0,1624378504935285868,world,cf12,2.02375149727,1.01888799667,0.0142329400405,0.0068937242915,0.0104119751075,-0.0242439548799,0.999628079833
1624378504935571102,0,1624378504935289290,world,cf7,-0.996237099171,1.10210633278,0.0133206713945,0.0066873654033,0.0063360942805,-0.00508881681003,0.999944616965
1624378504945466181,0,1624378504945226483,world,cf10,-1.0222505331,0.0508529320359,0.0194954592735,-0.00876031748908,0.0194292130135,-0.0579427088136,0.998092383006
1624378504945491044,0,1624378504945240870,world,cf11,2.04229426384,-0.0375481359661,0.00526860356331,-0.00131571222656,-0.00230232159887,0.0109348129172,0.999936697038
1624378504945508505,0,1624378504945245410,world,cf12,2.02378606796,1.01890301704,0.01420632191,0.00674988034224,0.0105166376902,-0.0242702247485,0.999627328377
1624378504945517375,0,1624378504945249042,world,cf7,-0.99628841877,1.10215508938,0.0132734226063,0.00723282500919,0.00625180703445,-0.00539091523971,0.999939767778
1624378504955507787,0,1624378504955222203,world,cf10,-1.02223312855,0.0506723858416,0.0196399800479,-0.00633072206792,0.0172050485055,-0.0590394628828,0.998087295825
1624378504955536632,0,1624378504955236521,world,cf11,2.04229807854,-0.0375076271594,0.00527882948518,6.70682550585e-05,-0.00263329775491,0.00983350235537,0.999948180395
1624378504955563032,0,1624378504955240502,world,cf12,2.02373766899,1.0189936161,0.0142772886902,0.00679463901742,0.0105966731379,-0.0243391807466,0.999624503341
1624378504955583985,0,1624378504955244064,world,cf7,-0.996218383312,1.10209834576,0.0132863987237,0.00729605907421,0.00583186961975,-0.00460127215853,0.999945791087
1624378504965347271,0,1624378504965101637,world,cf10,-1.02221882343,0.0507937148213,0.0195399112999,-0.00822200988811,0.0188319382795,-0.058148301441,0.998096454103
1624378504965361519,0,1624378504965113999,world,cf11,2.04224729538,-0.0375397242606,0.00526552181691,-0.000537058918659,-0.00222070444504,0.0102204111967,0.999945160114
1624378504965409989,0,1624378504965117770,world,cf12,2.02370333672,1.01895070076,0.0142804188654,0.00651695068603,0.0105034243564,-0.0244093444775,0.999625625588
1624378504965421234,0,1624378504965121472,world,cf7,-0.996293246746,1.10211586952,0.0132990274578,0.00804805570967,0.00653656433718,-0.00549364184201,0.999931158643
1624378504975271893,0,1624378504975010823,world,cf10,-1.02221429348,0.0507712997496,0.0195508096367,-0.00768264378606,0.0183676293913,-0.0582343411036,0.998104387673
1624378504975300318,0,1624378504975026677,world,cf11,2.04239845276,-0.0375475548208,0.00528880720958,-0.000374074781495,-0.00265143664212,0.00940069621739,0.99995222729
1624378504975315963,0,1624378504975030728,world,cf12,2.02375745773,1.01901507378,0.0142156118527,0.00696508687127,0.0108533512121,-0.0240018202744,0.999628733559
1624378504975336776,0,1624378504975034919,world,cf7,-0.996245026588,1.10214793682,0.0132552310824,0.00862740716438,0.00582028966021,-0.00506944949201,0.999932994133
1624378504985255740,0,1624378504985054944,world,cf10,-1.02221667767,0.0508493036032,0.0195580590516,-0.00802855193059,0.0196696650101,-0.0586557276141,0.998052179122
1624378504985283956,0,1624378504985070240,world,cf11,2.04233527184,-0.0374048165977,0.00522526632994,0.000206460680276,-0.00329134890703,0.00883541250903,0.999955528952
1624378504985299182,0,1624378504985074709,world,cf12,2.0237402916,1.01893997192,0.0142638999969,0.00684479149321,0.0107178211658,-0.024674746813,0.999614642754
1624378504985328376,0,1624378504985078830,world,cf7,-0.996316671371,1.10211777687,0.0132921123877,0.00730232419194,0.00699347434718,-0.00637190734071,0.999928580537
1624378504995265080,0,1624378504995087402,world,cf10,-1.02220797539,0.0506871342659,0.0196234304458,-0.00666944782315,0.0184849521108,-0.0587526453872,0.998079130967
1624378504995284775,0,1624378504995101789,world,cf11,2.04232573509,-0.0374468415976,0.0052540730685,0.00085032575175,-0.00242747206419,0.0085851783984,0.999959838712
1624378504995306636,0,1624378504995105770,world,cf12,2.02374053001,1.01896488667,0.0142713868991,0.00580349580527,0.0101827804939,-0.0246280606165,0.999627975323
1624378504995327449,0,1624378504995109751,world,cf7,-0.996255755424,1.10209918022,0.0133578777313,0.00751788813172,0.00644503433936,-0.00551972718697,0.999935735686
1624378505005489114,0,1624378505005236565,world,cf10,-1.02217531204,0.0509086698294,0.0195806995034,-0.00625334598825,0.0193123597594,-0.0586626540835,0.99807145107
1624378505005523895,0,1624378505005249975,world,cf11,2.04232120514,-0.0376353226602,0.00525528658181,0.000145167360519,-0.00114865322288,0.0101113245439,0.999948208978
1624378505005541006,0,1624378505005253956,world,cf12,2.02376651764,1.01892876625,0.0142489224672,0.00644730485741,0.0108305856531,-0.0242804675722,0.999625724743
1624378505005570410,0,1624378505005257657,world,cf7,-0.996317446232,1.10205805302,0.0133474031463,0.0072004329838,0.00614595975628,-0.00561089258226,0.999939447581
1624378505015449355,0,1624378505015270978,world,cf10,-1.02213418484,0.0507884249091,0.0195611082017,-0.00625531340386,0.0167752824094,-0.0579589690533,0.99815841371
1624378505015481971,0,1624378505015288159,world,cf11,2.04232096672,-0.0375306606293,0.00530338240787,-0.000561990877463,-0.00244779366438,0.0107448452247,0.999939118533
1624378505015497546,0,1624378505015293467,world,cf12,2.02370905876,1.01896286011,0.0142457224429,0.00595319736201,0.00978375877285,-0.0239847451228,0.999646722351
1624378505015522968,0,1624378505015298147,world,cf7,-0.996317446232,1.10210299492,0.013301692903,0.00708025741758,0.00626377948777,-0.00581126148947,0.999938430235
1624378505025507514,0,1624378505025252870,world,cf10,-1.02223885059,0.0508571751416,0.0196015052497,-0.00685418451341,0.0193398820514,-0.0571107758943,0.998156975828
1624378505025542994,0,1624378505025274591,world,cf11,2.04237222672,-0.0374337881804,0.00528168072924,-0.000682496737917,-0.0030446000487,0.00948558721551,0.999950142879
1624378505025565692,0,1624378505025281435,world,cf12,2.0237429142,1.01895642281,0.0142930485308,0.00625623748096,0.0104547010172,-0.0243138218247,0.999630129992
1624378505025579102,0,1624378505025291772,world,cf7,-0.99633038044,1.10216343403,0.0132989389822,0.00881332989574,0.00720208411366,-0.00671614188453,0.999912670506
1624378505035573146,0,1624378505035350560,world,cf10,-1.02226245403,0.0508886985481,0.019508311525,-0.00750801263751,0.0198113270901,-0.0577435096868,0.998106621636
1624378505035589489,0,1624378505035372350,world,cf11,2.04228186607,-0.0374975278974,0.00527318147942,-0.000290692513776,-0.00205881445462,0.00973007334951,0.999950500002
1624378505035610302,0,1624378505035378427,world,cf12,2.02370834351,1.01888525486,0.0142054781318,0.00549847740739,0.0092856178724,-0.0243029489275,0.999646392841
1624378505035620709,0,1624378505035383944,world,cf7,-0.996312916279,1.1021488905,0.0133928647265,0.00632242426404,0.0063404332483,-0.00605709372758,0.999941567029
1624378505045412211,0,1624378505045212253,world,cf10,-1.02221357822,0.0507562197745,0.019575400278,-0.00821695399763,0.0179050307509,-0.0582815196627,0.998105783976
1624378505045440148,0,1624378505045242774,world,cf11,2.04227733612,-0.0375134162605,0.00527899805456,-7.84545260937e-05,-0.0022310682027,0.00988230198815,0.999948676826
1624378505045461031,0,1624378505045248711,world,cf12,2.02373480797,1.01906502247,0.0142445983365,0.00732481485673,0.0110776499825,-0.0236331487157,0.999632485987
1624378505045470040,0,1624378505045253670,world,cf7,-0.996346950531,1.10213577747,0.0133173819631,0.00643637027347,0.00611783467185,-0.00606524847432,0.999942177327
1624378505055436008,0,1624378505055202457,world,cf10,-1.02218663692,0.0509224496782,0.0194333139807,-0.00636588194993,0.0170419463194,-0.0579818690082,0.998151867443
1624378505055459405,0,1624378505055221873,world,cf11,2.04230117798,-0.0374974906445,0.00527868047357,0.000566048737189,-0.00268610643794,0.0091630930637,0.999954250027
1624378505055475888,0,1624378505055227949,world,cf12,2.02375650406,1.01894545555,0.0142449904233,0.00630933699744,0.0104340967035,-0.0239000358247,0.999639990287
1624378505055487761,0,1624378505055233466,world,cf7,-0.996266365051,1.1020809412,0.0132144680247,0.00868457531116,0.00602247828284,-0.00496147698607,0.999931843504
1624378505065318096,0,1624378505065137135,world,cf10,-1.02226281166,0.0508083105087,0.0195480845869,-0.00722348036613,0.0186992659778,-0.0586629955747,0.998076556048
1624378505065329829,0,1624378505065152221,world,cf11,2.04229140282,-0.0374079160392,0.00522845704108,0.00044604785665,-0.0025996830659,0.00880939400431,0.999957717739
1624378505065368312,0,1624378505065156272,world,cf12,2.02370667458,1.01898443699,0.0142531646416,0.00623916508129,0.0102950120262,-0.0246840286802,0.999622821005
1624378505065378300,0,1624378505065159694,world,cf7,-0.996273815632,1.10211849213,0.0132666220888,0.00911806347261,0.00570370588947,-0.00497302138894,0.999929796394
1624378505075591229,0,1624378505075379608,world,cf10,-1.02217578888,0.0508203990757,0.0195608008653,-0.00741556489152,0.0190592691709,-0.0593452689996,0.998028001964
1624378505075604778,0,1624378505075405100,world,cf11,2.04235172272,-0.0375130623579,0.00525655597448,3.67217145615e-05,-0.00235070428766,0.00922292288146,0.999954704241
1624378505075614766,0,1624378505075413341,world,cf12,2.02371549606,1.01898384094,0.0142613239586,0.00652232585502,0.0105356807796,-0.0241901671734,0.999630579018
1624378505075652620,0,1624378505075422281,world,cf7,-0.996321320534,1.10208332539,0.0132596427575,0.00729880704046,0.00626623295337,-0.00589937661473,0.999936327521
1624378505085522136,0,1624378505085316381,world,cf10,-1.02222836018,0.0507853217423,0.0195150505751,-0.00699592837303,0.0183835045581,-0.0585643566162,0.998089835576
1624378505085542320,0,1624378505085334540,world,cf11,2.04232621193,-0.0374762676656,0.00518475892022,0.000173819764233,-0.0018205561582,0.00941498224333,0.999954005678
1624378505085578429,0,1624378505085340617,world,cf12,2.0237903595,1.01902770996,0.0142757855356,0.00593675478925,0.0110741647365,-0.0249466613375,0.999609814831
1624378505085587648,0,1624378505085345785,world,cf7,-0.996291220188,1.10210359097,0.0132256299257,0.00884779934556,0.00593961229494,-0.00515547731986,0.999929926798
1624378505095496694,0,1624378505095281092,world,cf10,-1.02220487595,0.0507022663951,0.0195941329002,-0.007065888406,0.0182398890661,-0.0592138201053,0.998053657464
1624378505095516809,0,1624378505095301486,world,cf11,2.04231452942,-0.0374381393194,0.00526128197089,0.000185727698512,-0.00262104399195,0.00964107011311,0.999950071454
1624378505095523165,0,1624378505095307423,world,cf12,2.02376246452,1.01897644997,0.0142860403284,0.00611293508512,0.0103743841088,-0.0245924464192,0.999625037581
1624378505095567584,0,1624378505095312731,world,cf7,-0.996292829514,1.10201489925,0.0132165830582,0.00815851619922,0.00606830795134,-0.00512785933985,0.999935157553
1624378505105359785,0,1624378505105116036,world,cf10,-1.0222069025,0.0508502945304,0.0195772089064,-0.00750542366324,0.018890814373,-0.0585878774453,0.99807528091
1624378505105381226,0,1624378505105136290,world,cf11,2.04231238365,-0.0375273004174,0.00532824546099,-0.000505761521003,-0.0026347131234,0.0101548598244,0.999944839136
1624378505105408954,0,1624378505105142087,world,cf12,2.02376008034,1.01887357235,0.0142547888681,0.00635343419175,0.0101465592424,-0.0239522550877,0.999641421053
1624378505105423760,0,1624378505105147116,world,cf7,-0.996281147003,1.10212862492,0.0132314525545,0.00922764095343,0.00649696404124,-0.00555146906262,0.999920907518
1624378505115461875,0,1624378505115244596,world,cf10,-1.02218472958,0.0507644712925,0.0196484494954,-0.00698804918681,0.0184574615914,-0.0583286001374,0.99810233127
