%time,field.transforms0.header.seq,field.transforms0.header.stamp,field.transforms0.header.frame_id,field.transforms0.child_frame_id,field.transforms0.transform.translation.x,field.transforms0.transform.translation.y,field.transforms0.transform.translation.z,field.transforms0.transform.rotation.x,field.transforms0.transform.rotation.y,field.transforms0.transform.rotation.z,field.transforms0.transform.rotation.w
1624516913067020323,0,1624516913066666293,world,cf10,-0.513410687447,0.489391237497,0.014022055082,0.00452792496254,0.00255118212503,0.0768130481643,0.997031967891
1624516913067072355,0,1624516913066690109,world,cf11,0.516640305519,-0.471122503281,0.0187874548137,0.00135900942939,-0.0142595042867,-0.116418951341,0.993096897286
1624516913067095123,0,1624516913066696605,world,cf12,0.504393100739,0.518958985806,0.0167894363403,0.0101973600131,0.011701356556,-0.0361808946251,0.999224716952
1624516913067122362,0,1624516913066702681,world,cf7,-0.464303046465,-0.491312384605,0.0167533569038,0.0189328470648,-0.00498555640854,0.119958622715,0.992585825189
1624516913077474422,0,1624516913077194565,world,cf10,-0.513400018215,0.489316314459,0.0139634991065,0.00402340113759,0.0028857742945,0.0768937631096,0.9970269975
1624516913077511229,0,1624516913077211606,world,cf11,0.516614496708,-0.471169292927,0.0187332686037,0.00141215693651,-0.0142056407833,-0.115336571935,0.993223882494
1624516913077556835,0,1624516913077215727,world,cf12,0.504419982433,0.518897712231,0.0167075414211,0.0097566296027,0.0115679626493,-0.0363932335666,0.999222959589
1624516913077581699,0,1624516913077219498,world,cf7,-0.464340984821,-0.491407692432,0.0167600084096,0.0190543367704,-0.00567372710908,0.120164858188,0.992554858901
1624516913087547603,0,1624516913087205237,world,cf10,-0.51341933012,0.489338606596,0.0139422249049,0.00382949093771,0.00265180208579,0.0768880934413,0.997028848144
1624516913087582663,0,1624516913087229542,world,cf11,0.516602039337,-0.471143752337,0.0187435988337,0.000697635014742,-0.0140844493804,-0.11547707302,0.993210041833
1624516913087601241,0,1624516913087236177,world,cf12,0.504429161549,0.518950223923,0.0167189128697,0.00969145723287,0.0112868863725,-0.0360463521212,0.999239381906
1624516913087616397,0,1624516913087242183,world,cf7,-0.464363127947,-0.49129268527,0.0167339034379,0.019958450104,-0.00599894177729,0.120613787081,0.99248072391
1624516913097109609,0,1624516913096740424,world,cf10,-0.513398587704,0.489379554987,0.0139224389568,0.00441345483209,0.00315706318218,0.0769089616128,0.997023352782
1624516913097138873,0,1624516913096762913,world,cf11,0.516593337059,-0.471176952124,0.0187997743487,-0.00121418028385,-0.0159989114518,-0.116501475361,0.993060907919
1624516913097162689,0,1624516913096769548,world,cf12,0.504431009293,0.518934488297,0.0167299937457,0.0100585510594,0.0113798416744,-0.0359196512606,0.999239262343
1624516913097179731,0,1624516913096775625,world,cf7,-0.464265704155,-0.491350620985,0.0168420337141,0.021515667361,-0.00697746730691,0.119310564863,0.992599304916
1624516913107317515,0,1624516913106970191,world,cf10,-0.513400256634,0.489330887794,0.0139815649018,0.00404714374217,0.00296295876868,0.0766575784145,0.997044862167
1624516913107342519,0,1624516913106990794,world,cf11,0.516610682011,-0.471112757921,0.0188012290746,-0.000549974613509,-0.0143564425974,-0.115452348142,0.993209114634
1624516913107368919,0,1624516913106996940,world,cf12,0.504430413246,0.518889844418,0.0167363211513,0.00974859397863,0.0114191827306,-0.0362379628211,0.999230392468
1624516913107412989,0,1624516913107002458,world,cf7,-0.464383691549,-0.491359829903,0.0167854465544,0.0191624479409,-0.00488412794671,0.120305067647,0.992539992434
1624516913117299552,0,1624516913116954951,world,cf10,-0.513390958309,0.489372700453,0.01401559636,0.00458859282276,0.00275355602267,0.0773679990853,0.996988242389
1624516913117328397,0,1624516913117003073,world,cf11,0.516586363316,-0.471062660217,0.0187315102667,0.000301987019801,-0.0142230838412,-0.115688405829,0.993183671557
1624516913117350188,0,1624516913117010755,world,cf12,0.504446387291,0.518872976303,0.0167110338807,0.00936781823339,0.0116773725443,-0.0363590204335,0.99922665326
1624516913117360664,0,1624516913117016273,world,cf7,-0.464345812798,-0.491443395615,0.0167673397809,0.0196200609138,-0.00608070427337,0.119804382282,0.992585003026
1624516913127040843,0,1624516913126751628,world,cf10,-0.513389468193,0.489368408918,0.0140063017607,0.00418661010241,0.00281135752908,0.0768961436774,0.997026354542
1624516913127067453,0,1624516913126774186,world,cf11,0.516609191895,-0.471105515957,0.0187934599817,-0.000283977281713,-0.0146079083571,-0.115250156536,0.993229041958
1624516913127088965,0,1624516913126780263,world,cf12,0.504427433014,0.518908441067,0.0167405381799,0.00989085642089,0.0115791235593,-0.0362567834421,0.999226471082
1624516913127108590,0,1624516913126785780,world,cf7,-0.464344352484,-0.491238892078,0.0167659316212,0.0190021025055,-0.00490610772063,0.120485195233,0.992521117124
1624516913137097681,0,1624516913136809513,world,cf10,-0.513413965702,0.489405035973,0.0139979412779,0.00428495832784,0.00293132963586,0.0769570241438,0.9970208939
1624516913137127713,0,1624516913136832142,world,cf11,0.516618549824,-0.471243470907,0.0188767164946,-0.000171915303811,-0.0153055867288,-0.117221345217,0.992987847703
1624516913137151529,0,1624516913136838288,world,cf12,0.504423081875,0.518928468227,0.0167547892779,0.00989777659769,0.0116548395193,-0.0364090640912,0.999219985182
1624516913137191758,0,1624516913136843875,world,cf7,-0.464340090752,-0.491318404675,0.0168849155307,0.0218657947173,-0.007126848771,0.120401167933,0.992458892755
1624516913147314737,0,1624516913146960987,world,cf10,-0.513383090496,0.489346504211,0.0139734651893,0.00409534104561,0.00270896356211,0.0770156526258,0.997017792694
1624516913147341905,0,1624516913147004289,world,cf11,0.516557335854,-0.471108525991,0.018803153187,0.000940343501707,-0.0145812345078,-0.116188163573,0.993119737997
1624516913147379899,0,1624516913147010505,world,cf12,0.504437446594,0.518922030926,0.0167259927839,0.00976230489774,0.0113930349039,-0.0361800345123,0.999232656222
1624516913147423690,0,1624516913147016092,world,cf7,-0.464318275452,-0.491279780865,0.016781071201,0.019671676533,-0.00588497002853,0.119978955979,0.992564074704
1624516913157229655,0,1624516913156880235,world,cf10,-0.513411045074,0.489380270243,0.0139812845737,0.00419852082347,0.00270392158085,0.0769757016532,0.997020462471
1624516913157273097,0,1624516913156901258,world,cf11,0.516628086567,-0.471086084843,0.0187759567052,0.000135907478196,-0.0142800283142,-0.116055359269,0.993140078693
1624516913157295726,0,1624516913156907544,world,cf12,0.504376530647,0.518962979317,0.0167924035341,0.0112521721751,0.0129146667727,-0.0359569896027,0.999206532656
1624516913157319682,0,1624516913156913131,world,cf7,-0.464327156544,-0.491312265396,0.0168574899435,0.0215952467607,-0.00687186316357,0.120230568603,0.992487296235
1624516913167191438,0,1624516913166913955,world,cf10,-0.513402462006,0.489321380854,0.0139831481501,0.00402595060618,0.00263067733576,0.0765620925444,0.997053216856
1624516913167218676,0,1624516913166937632,world,cf11,0.516640722752,-0.471022218466,0.0188223961741,0.000494287748145,-0.0138114315851,-0.116036070356,0.993148846052
1624516913167251362,0,1624516913166943848,world,cf12,0.50440120697,0.518943488598,0.0168132297695,0.0111712555884,0.0123709741883,-0.0357476483341,0.999221831069
1624516913167266658,0,1624516913166950622,world,cf7,-0.464409649372,-0.491299003363,0.0168186295778,0.0214253107889,-0.00673316846599,0.121383824965,0.992351544331
1624516913177226345,0,1624516913176888589,world,cf10,-0.513378739357,0.489364147186,0.0139812920243,0.00459770305707,0.00270774358817,0.077576839482,0.996972097517
1624516913177253374,0,1624516913176913034,world,cf11,0.516632437706,-0.471116453409,0.0187900513411,-0.000869777308917,-0.0138816688074,-0.115393783156,0.993222441132
1624516913177293463,0,1624516913176919459,world,cf12,0.504403829575,0.51896071434,0.0168148297817,0.0109443423994,0.012399446399,-0.0358947222669,0.999218716804
1624516913177315045,0,1624516913176925396,world,cf7,-0.464316576719,-0.491281747818,0.0168812610209,0.0224247942118,-0.0076156033294,0.120091450401,0.992480314531
1624516913187267608,0,1624516913186893674,world,cf10,-0.513405680656,0.48932698369,0.0139821711928,0.00411233538567,0.0029496671618,0.0768118574852,0.997032761102
1624516913187291983,0,1624516913186918118,world,cf11,0.516644895077,-0.471081823111,0.0188123974949,8.59967292418e-07,-0.0144371461035,-0.116099779221,0.993132624616
1624516913187351558,0,1624516913186924823,world,cf12,0.504360973835,0.518964827061,0.016801122576,0.0111499111201,0.0125829520552,-0.0361851748887,0.999203673891
1624516913187374816,0,1624516913186931249,world,cf7,-0.464343965054,-0.491316616535,0.0167958270758,0.0203851054137,-0.00601845242039,0.120585733646,0.992475343043
1624516913197336179,0,1624516913197019166,world,cf10,-0.513403236866,0.489370316267,0.0139977186918,0.00443432956526,0.00322224347295,0.0770977977758,0.997008467089
1624516913197361741,0,1624516913197041306,world,cf11,0.516607582569,-0.471018224955,0.018808754161,-0.000784963674241,-0.0143640313966,-0.115477504381,0.993205922463
1624516913197373335,0,1624516913197047173,world,cf12,0.504406630993,0.518871843815,0.0167845152318,0.0109326252653,0.0126735325832,-0.0361093021727,0.999207674897
1624516913197384859,0,1624516913197052411,world,cf7,-0.464312940836,-0.49131539464,0.016761329025,0.0190878625695,-0.00487696295135,0.12027617017,0.992544967054
1624516913207389385,0,1624516913207041991,world,cf10,-0.513380348682,0.489343822002,0.0140004465356,0.00468162728669,0.0031342837166,0.0772603157579,0.996995036217
1624516913207413341,0,1624516913207067204,world,cf11,0.516563117504,-0.471053957939,0.0187878236175,0.000453475746232,-0.0150016760422,-0.116612292802,0.993064105304
1624516913207454059,0,1624516913207073769,world,cf12,0.504410028458,0.518888115883,0.0168042555451,0.0106516427357,0.0125651120706,-0.0360175455112,0.999215390635
1624516913207473335,0,1624516913207079705,world,cf7,-0.464354604483,-0.491330176592,0.0168204419315,0.0201265254205,-0.00582720854647,0.120510064711,0.992490952563
1624516913217746125,0,1624516913217406832,world,cf10,-0.513390660286,0.489390909672,0.0140058929101,0.00473116379451,0.00309382585093,0.0772791272575,0.996993470802
1624516913217786982,0,1624516913217429740,world,cf11,0.516602814198,-0.471163839102,0.0188061911613,-0.00174504833883,-0.0147373323286,-0.116055802211,0.993131822376
1624516913217809262,0,1624516913217435956,world,cf12,0.504416108131,0.518894016743,0.0167606920004,0.010616205742,0.0129327589115,-0.0363203551634,0.999200115954
1624516913217862621,0,1624516913217441543,world,cf7,-0.464320719242,-0.491349607706,0.0167790651321,0.0183721538844,-0.00470494665746,0.119658634204,0.992633939929
1624516913227685139,0,1624516913227355554,world,cf10,-0.513409674168,0.489334523678,0.0139792663977,0.00425283245033,0.00279852775636,0.0767856624973,0.997034625123
1624516913227703647,0,1624516913227380069,world,cf11,0.516570389271,-0.471101522446,0.0187279731035,-0.000203080224507,-0.0141232774994,-0.115324301554,0.993227465016
1624516913227733749,0,1624516913227386704,world,cf12,0.504411578178,0.518940508366,0.0167809259146,0.0108879183257,0.0126500784683,-0.0362077364138,0.999204898193
1624516913227754562,0,1624516913227392710,world,cf7,-0.464374393225,-0.49137404561,0.016816066578,0.0198010688919,-0.00577708375654,0.1204241132,0.992508224618
1624516913236867344,0,1624516913236553334,world,cf10,-0.513412833214,0.489390194416,0.0139924157411,0.00431500565455,0.00276655706296,0.0767377621946,0.997038135049
1624516913236887389,0,1624516913236576103,world,cf11,0.516604423523,-0.471175134182,0.0187148936093,0.00028638536477,-0.0141663880258,-0.115128921892,0.993249496742
1624516913236903872,0,1624516913236582249,world,cf12,0.504401683807,0.518972754478,0.016798472032,0.0109674808284,0.0127133027171,-0.0356917265568,0.999221790672
1624516913236923497,0,1624516913236587836,world,cf7,-0.464325278997,-0.491345256567,0.016890829429,0.021718779403,-0.00672489911463,0.119352265227,0.992591611459
1624516913247068196,0,1624516913246723526,world,cf10,-0.513401329517,0.489333033562,0.0139701925218,0.00391333416156,0.00268800188004,0.0766830082857,0.997044220033
1624516913247097949,0,1624516913246746504,world,cf11,0.516601800919,-0.471068322659,0.0187720432878,-0.000697969788516,-0.0138790854987,-0.114879478248,0.993282230437
1624516913247123651,0,1624516913246752720,world,cf12,0.504403233528,0.518887162209,0.0167690981179,0.0103299382831,0.0126422203362,-0.0361118905334,0.99921439041
1624516913247157664,0,1624516913246758237,world,cf7,-0.464326024055,-0.491429001093,0.0167514476925,0.0193641633673,-0.00537112171402,0.119254902546,0.992660288542
1624516913257082361,0,1624516913256739925,world,cf10,-0.513383746147,0.489357829094,0.0139632662758,0.00407400073297,0.00296257970296,0.0770436670481,0.997014994374
1624516913257115466,0,1624516913256764509,world,cf11,0.516598403454,-0.471062779427,0.0188283976167,-0.000649407217095,-0.0147606535371,-0.116140641656,0.99312287897
1624516913257137955,0,1624516913256771074,world,cf12,0.504374086857,0.518904745579,0.0167475994676,0.010634879793,0.0128781118195,-0.0363946415266,0.999197920152
1624516913257149968,0,1624516913256777011,world,cf7,-0.464286029339,-0.491378486156,0.0168536752462,0.0222703410218,-0.00747151644706,0.119977074841,0.992498720334
1624516913267162316,0,1624516913266821138,world,cf10,-0.513402163982,0.489370852709,0.0139930918813,0.00445615919161,0.00281820236613,0.0770787670956,0.997011065156
1624516913267183757,0,1624516913266846071,world,cf11,0.516587913036,-0.471081107855,0.0188132189214,-0.000905179074658,-0.0151021341743,-0.116046548567,0.993128543926
1624516913267194793,0,1624516913266852217,world,cf12,0.504375100136,0.518888950348,0.0167599264532,0.0107617962606,0.0127050613059,-0.0364094815608,0.999198235993
1624516913267251993,0,1624516913266857735,world,cf7,-0.464363127947,-0.491425901651,0.0167867783457,0.0209107171027,-0.00692626865767,0.120630254269,0.992453077212
1624516913277298913,0,1624516913276982040,world,cf10,-0.513397395611,0.489328831434,0.013993954286,0.004122174787,0.00309546732433,0.076697259702,0.997041100513
1624516913277333415,0,1624516913277004389,world,cf11,0.516586899757,-0.471131622791,0.0187850296497,-0.00131811577138,-0.0149265801247,-0.115861992227,0.993152283657
1624516913277352971,0,1624516913277010535,world,cf12,0.504424214363,0.518845021725,0.0167425908148,0.0099410655374,0.0123241327749,-0.0361559869979,0.999220714143
1624516913277390057,0,1624516913277016262,world,cf7,-0.464326649904,-0.49145463109,0.0168159995228,0.0202451461789,-0.00579825421151,0.119988241325,0.99255193126
1624516913287027563,0,1624516913286710550,world,cf10,-0.513375222683,0.489353507757,0.0139753473923,0.00442679131707,0.00294655443994,0.0772551369927,0.99699717409
1624516913287048516,0,1624516913286734506,world,cf11,0.516646742821,-0.471155762672,0.0188023056835,-0.000640264885685,-0.0149433128253,-0.115905619938,0.993147609739
1624516913287070306,0,1624516913286741071,world,cf12,0.504370868206,0.518887162209,0.0167510248721,0.0102005115583,0.0123114798803,-0.0364703532249,0.999206830623
1624516913287102993,0,1624516913286746938,world,cf7,-0.46434956789,-0.491515994072,0.0168523155153,0.0207120667748,-0.00652109748923,0.11975973292,0.992565409406
1624516913297219475,0,1624516913296899878,world,cf10,-0.513412773609,0.489358574152,0.0139984674752,0.00445547781801,0.0029016585753,0.0768242682474,0.997030471402
1624516913297243012,0,1624516913296922088,world,cf11,0.516594290733,-0.471124619246,0.0187991857529,0.00112323683487,-0.0143116469579,-0.116116336791,0.993131870111
1624516913297291133,0,1624516913296927815,world,cf12,0.504421651363,0.518865287304,0.0167423319072,0.0099157888782,0.0121000337308,-0.0364047632257,0.999214671394
1624516913297306149,0,1624516913296933053,world,cf7,-0.464342564344,-0.49147310853,0.0167761743069,0.0196877535885,-0.00559940946064,0.11943970129,0.99263044318
1624516913307302853,0,1624516913307014824,world,cf10,-0.513385176659,0.489389330149,0.0140194138512,0.00491719452056,0.00270563219896,0.0769245239406,0.997021122328
1624516913307328695,0,1624516913307036964,world,cf11,0.516650557518,-0.471149474382,0.0187746696174,-7.80315787864e-06,-0.0138640037638,-0.115291801669,0.993234911693
1624516913307343571,0,1624516913307042831,world,cf12,0.504402637482,0.518859386444,0.0167371742427,0.0101576422076,0.0127341480371,-0.0365500608246,0.999199057662
1624516913307357889,0,1624516913307047999,world,cf7,-0.464375019073,-0.491415888071,0.016788315028,0.019959301021,-0.0058181640532,0.120086857778,0.992545677467
1624516913317364580,0,1624516913317040932,world,cf10,-0.51340931654,0.489374279976,0.0139911621809,0.00436040747961,0.00266547727117,0.0769542063509,0.997021530461
1624516913317387348,0,1624516913317062513,world,cf11,0.516529083252,-0.471100091934,0.0187621377409,-0.000752364568678,-0.0149158563811,-0.115305340608,0.99321781579
1624516913317422479,0,1624516913317068310,world,cf12,0.504410266876,0.518953859806,0.0167452953756,0.0098821271372,0.011788930054,-0.0363064974531,0.999222299058
1624516913317493508,0,1624516913317073548,world,cf7,-0.464333534241,-0.49138173461,0.0168571099639,0.0216940952545,-0.00725928396182,0.120107364585,0.992497299744
1624516913327045039,0,1624516913326772515,world,cf10,-0.513400316238,0.489414006472,0.0139640020207,0.00438987079869,0.00286959942485,0.0768895650955,0.997025821738
1624516913327071579,0,1624516913326794445,world,cf11,0.516586840153,-0.471046298742,0.0188239980489,-0.000427157798077,-0.0145660668573,-0.115684622485,0.993179095306
1624516913327119490,0,1624516913326800102,world,cf12,0.504384338856,0.518935680389,0.0167240127921,0.0100281454862,0.0120650886293,-0.036236353978,0.999220094166
1624516913327155529,0,1624516913326805410,world,cf7,-0.464301109314,-0.491383105516,0.0167576540262,0.0187562407246,-0.0052291532377,0.119395487764,0.992655819956
1624516913337157610,0,1624516913336785911,world,cf10,-0.513403117657,0.489423841238,0.0140014244244,0.00437846957361,0.00290454429373,0.0768493994654,0.9970288674
1624516913337187572,0,1624516913336809867,world,cf11,0.516551554203,-0.471038609743,0.0188191328198,-0.000704886285972,-0.0153560910827,-0.116016568503,0.993128314688
1624516913337202588,0,1624516913336816432,world,cf12,0.504426777363,0.518924415112,0.0167469009757,0.00972137117616,0.0114707888903,-0.0359242514979,0.999241394308
1624516913337225357,0,1624516913336822438,world,cf7,-0.464281111956,-0.491388529539,0.0167900342494,0.0202307184792,-0.00580713028177,0.119757156185,0.992580081812
1624516913347140345,0,1624516913346798469,world,cf10,-0.51340007782,0.489388585091,0.0140091916546,0.00414683528424,0.00256702349411,0.0767843273146,0.997035797365
1624516913347171146,0,1624516913346821377,world,cf11,0.516602635384,-0.471001505852,0.0188133176416,-0.000762628148145,-0.0144833305736,-0.115338361179,0.993220375332
1624516913347225832,0,1624516913346827453,world,cf12,0.504382014275,0.518957197666,0.0167224444449,0.00990733509583,0.0118101780002,-0.0362783635109,0.99922282037
1624516913347244410,0,1624516913346833110,world,cf7,-0.464328616858,-0.491412878036,0.0167921762913,0.0193757194005,-0.00516002213335,0.119781540516,0.992597772625
1624516913357587740,0,1624516913357262346,world,cf10,-0.513393342495,0.489370912313,0.0140109499916,0.00435344840184,0.00300182480182,0.0767381286719,0.997037259155
1624516913357607575,0,1624516913357285952,world,cf11,0.516615092754,-0.471134960651,0.018806675449,1.11474234416e-05,-0.0137994854058,-0.115567286406,0.993203793987
1624516913357640750,0,1624516913357292029,world,cf12,0.504412412643,0.518921613693,0.0167111940682,0.00999360369286,0.0116704323336,-0.0361085766278,0.999229753154
1624516913357655487,0,1624516913357297686,world,cf7,-0.464316427708,-0.491404354572,0.0168126840144,0.019680591381,-0.00539357915876,0.119920105235,0.992573801784
1624516913366983383,0,1624516913366651912,world,cf10,-0.513408541679,0.489359200001,0.01401697658,0.00444833879811,0.00290213776235,0.0770354555225,0.997014206755
1624516913367007059,0,1624516913366674890,world,cf11,0.516626775265,-0.471030116081,0.0188350230455,-0.00114483024244,-0.0141890187258,-0.11529937271,0.993228783193
1624516913367022913,0,1624516913366681386,world,cf12,0.504428505898,0.518874585629,0.0167653318495,0.00989426187942,0.0121432270403,-0.0363580763862,0.99921606067
1624516913367055949,0,1624516913366686764,world,cf7,-0.464414387941,-0.491409569979,0.0168276578188,0.0200865437746,-0.00585581925123,0.120822221883,0.992453641658
1624516913377223067,0,1624516913376875323,world,cf10,-0.513438820839,0.489330470562,0.0139879435301,0.00426225687292,0.00265019618047,0.0764727363785,0.997059040487
1624516913377243042,0,1624516913376899349,world,cf11,0.516658246517,-0.471196115017,0.0188450999558,0.000123865975923,-0.0139048482191,-0.115740143454,0.993182188245
1624516913377289347,0,1624516913376905984,world,cf12,0.50441044569,0.518850386143,0.0167346671224,0.00984342689316,0.0121300669208,-0.036396638064,0.999215318718
1624516913377312814,0,1624516913376911781,world,cf7,-0.46438357234,-0.491495221853,0.0168337281793,0.0210405761959,-0.00695557307361,0.120425429002,0.992475002308
1624516913387170532,0,1624516913386812242,world,cf10,-0.51339006424,0.489319264889,0.0139744244516,0.00399115486017,0.00273374158993,0.0768868458108,0.997028089013
1624516913387198609,0,1624516913386834941,world,cf11,0.516645491123,-0.471246987581,0.0187792796642,0.000604501739277,-0.0138541764736,-0.116248106233,0.993123393224
1624516913387229060,0,1624516913386841017,world,cf12,0.504409193993,0.518829107285,0.016731088981,0.0103589303148,0.012877423936,-0.0368896006062,0.999182676933
1624516913387258114,0,1624516913386846605,world,cf7,-0.464362710714,-0.491394817829,0.016759602353,0.0198749875512,-0.00545282832469,0.120598051948,0.992487461583
1624516913397292044,0,1624516913396996681,world,cf10,-0.513394713402,0.489340782166,0.0139594161883,0.00430199456153,0.0028075252117,0.0768625138082,0.997028467305
1624516913397329688,0,1624516913397021056,world,cf11,0.51660323143,-0.471283853054,0.0188071653247,0.000411614692693,-0.0148668085863,-0.116645359735,0.993062268253
1624516913397341771,0,1624516913397027482,world,cf12,0.504426240921,0.518876075745,0.0167445912957,0.00959334501288,0.0112230561056,-0.0363019845809,0.999231793259
1624516913397363841,0,1624516913397033488,world,cf7,-0.464306175709,-0.491394519806,0.0167961660773,0.0203696176336,-0.0061324258503,0.119744630815,0.99257679573
1624516913407486261,0,1624516913407161984,world,cf10,-0.513379991055,0.489330083132,0.0139875616878,0.00397647826317,0.00244370034372,0.0772208948194,0.997003083923
1624516913407511962,0,1624516913407186149,world,cf11,0.516666769981,-0.471275031567,0.0188007298857,0.000687853852028,-0.0142170407368,-0.11592300428,0.993156211121
1624516913407557988,0,1624516913407192645,world,cf12,0.504397153854,0.518886506557,0.0167350042611,0.00952032926582,0.0115830569047,-0.036485100996,0.9992217139
1624516913407582433,0,1624516913407198581,world,cf7,-0.464334636927,-0.491415023804,0.0168489124626,0.0221951860692,-0.00777815175307,0.120047775745,0.992489498992
1624516913417597366,0,1624516913417249343,world,cf10,-0.513417005539,0.489423036575,0.0140010733157,0.0042970556721,0.00259734544591,0.0764308330936,0.997062243223
1624516913417626071,0,1624516913417273857,world,cf11,0.516599774361,-0.471122533083,0.0187832247466,-3.10726786699e-05,-0.0151582879606,-0.115989862188,0.993134722588
1624516913417638782,0,1624516913417280352,world,cf12,0.504438042641,0.518963515759,0.0167118757963,0.0100836622413,0.0113875585357,-0.0359517928206,0.999237765429
1624516913417657639,0,1624516913417286429,world,cf7,-0.464356482029,-0.491314917803,0.0167414341122,0.0195212488975,-0.00560354471875,0.120706264188,0.992480487926
1624516913427075213,0,1624516913426758339,world,cf10,-0.513399124146,0.489384114742,0.0139817520976,0.00406438682228,0.00315814078156,0.0769286847405,0.997023311849
1624516913427101403,0,1624516913426782365,world,cf11,0.516633629799,-0.471003681421,0.0188359990716,-0.000414973321162,-0.0149200369728,-0.116235149807,0.993109566082
1624516913427149245,0,1624516913426788860,world,cf12,0.504410207272,0.518940091133,0.0167091824114,0.00957175244786,0.0118806836343,-0.0364863534847,0.99921768245
1624516913427161398,0,1624516913426794797,world,cf7,-0.464320868254,-0.49135401845,0.0167681276798,0.0200696888665,-0.00557981952273,0.119671607364,0.992594972581
1624516913437106977,0,1624516913436785703,world,cf10,-0.513397812843,0.48938202858,0.0140175092965,0.00445221637488,0.00278864610652,0.0766674418145,0.997042880015
1624516913437148882,0,1624516913436809869,world,cf11,0.516589105129,-0.471106618643,0.0188167151064,4.38140234302e-05,-0.0145051936354,-0.115924165185,0.993152146131
1624516913437160127,0,1624516913436816294,world,cf12,0.504431962967,0.518922746181,0.0167169291526,0.00975701204516,0.0118499210951,-0.0364799868913,0.999216488376
1624516913437170743,0,1624516913436822231,world,cf7,-0.464363455772,-0.491340309381,0.0167398490012,0.0192540161988,-0.00506899750273,0.120890366815,0.992466174404
1624516913447162138,0,1624516913446819703,world,cf10,-0.513400435448,0.489390462637,0.0140137728304,0.00431568732461,0.00277143436204,0.0766439583527,0.997045333795
1624516913447190285,0,1624516913446843519,world,cf11,0.516594350338,-0.471172332764,0.0187993459404,0.000669222745295,-0.0140983651285,-0.115043105888,0.993260223723
1624516913447213263,0,1624516913446850014,world,cf12,0.504405319691,0.518934011459,0.0167283248156,0.00946831621447,0.0118222303248,-0.0364632536388,0.999220204456
1624516913447230793,0,1624516913446856021,world,cf7,-0.464448302984,-0.491434544325,0.0167704317719,0.0199230740236,-0.00582144125716,0.120778596998,0.992462448887
1624516913457340990,0,1624516913456984377,world,cf10,-0.513418495655,0.489326417446,0.0139949191362,0.00407324126332,0.00268785376327,0.0765266791629,0.99705559099
1624516913457365295,0,1624516913457008891,world,cf11,0.516622662544,-0.471226632595,0.0188573859632,-0.00117858047489,-0.0149672527822,-0.115999216536,0.993135828603
1624516913457425569,0,1624516913457015387,world,cf12,0.504416227341,0.518910944462,0.0167556200176,0.00979660732046,0.0122500825828,-0.0365523584649,0.999208630393
1624516913457444496,0,1624516913457021463,world,cf7,-0.464353770018,-0.491431087255,0.0169126410037,0.0220466808648,-0.00726403368411,0.120265420822,0.992470355342
1624516913467147863,0,1624516913466825402,world,cf10,-0.513424634933,0.489334255457,0.013991699554,0.00404835298323,0.00256473030619,0.0764695614772,0.997060398955
1624516913467175381,0,1624516913466849428,world,cf11,0.516620099545,-0.471281051636,0.0188336037099,0.00231380731518,-0.0134916749155,-0.115721237705,0.99318740233
1624516913467220080,0,1624516913466856133,world,cf12,0.504383742809,0.518881678581,0.0167599152774,0.00990873403327,0.0121481625264,-0.0366469105436,0.999205305773
1624516913467243058,0,1624516913466862139,world,cf7,-0.464326322079,-0.491399288177,0.0168121624738,0.021100036828,-0.00675947452862,0.120204180639,0.99250191582
1624516913477579264,0,1624516913477245070,world,cf10,-0.513364732265,0.489355564117,0.0139906387776,0.00492238202617,0.00278425610127,0.07677822495,0.997032157078
1624516913477609855,0,1624516913477269095,world,cf11,0.516588449478,-0.471263051033,0.0188524499536,0.00041477707027,-0.0145283020839,-0.115479764207,0.993203493982
1624516913477623404,0,1624516913477276708,world,cf12,0.504403829575,0.518874168396,0.0167589057237,0.0100413131183,0.0120664023192,-0.0363464388104,0.999215947807
1624516913477671246,0,1624516913477282924,world,cf7,-0.464308857918,-0.491473585367,0.0167804379016,0.0188871049774,-0.005219216134,0.119338932881,0.992660191681
1624516913487527427,0,1624516913487197563,world,cf10,-0.513400256634,0.489333152771,0.0139702484012,0.0041129136632,0.00292858778694,0.0767819122243,0.9970351274
1624516913487567237,0,1624516913487221938,world,cf11,0.516629397869,-0.471358656883,0.0188796035945,0.000928541646034,-0.0137694170791,-0.115888677616,0.993166328147
1624516913487588888,0,1624516913487228433,world,cf12,0.504432201385,0.518894374371,0.0167468525469,0.0099748242186,0.0116519806369,-0.0361073238971,0.9992302014
1624516913487599854,0,1624516913487234440,world,cf7,-0.464384645224,-0.491504877806,0.0167689323425,0.0193980185069,-0.00557859235897,0.120277939919,0.992535043892
1624516913497108641,0,1624516913496803291,world,cf10,-0.513380110264,0.489384800196,0.0139816673473,0.00430187208776,0.00276373511973,0.0772420313945,0.996999259905
1624516913497138952,0,1624516913496828155,world,cf11,0.51659154892,-0.471235901117,0.0187495518476,0.00138649433757,-0.0137217367014,-0.115564663505,0.993204208672
1624516913497163187,0,1624516913496834720,world,cf12,0.504397034645,0.518931567669,0.0167004149407,0.00997744715314,0.0118894152004,-0.0365435826754,0.999211518608
1624516913497209981,0,1624516913496840657,world,cf7,-0.464411318302,-0.491413146257,0.0166936852038,0.0185401385077,-0.0047471803012,0.120306135061,0.992552346937
1624516913507010569,0,1624516913506736369,world,cf10,-0.513367474079,0.48935598135,0.0139914937317,0.00460508684898,0.00289132484015,0.077171710818,0.997002989196
1624516913507055477,0,1624516913506758718,world,cf11,0.516590595245,-0.471184015274,0.0188347995281,0.000131675214836,-0.0146243225425,-0.114826051637,0.993277951893
1624516913507069934,0,1624516913506764445,world,cf12,0.504385650158,0.51901525259,0.0167439430952,0.0103338994952,0.0119308699923,-0.0361902754064,0.999220260417
1624516913507111421,0,1624516913506769683,world,cf7,-0.46441462636,-0.49142152071,0.0167260225862,0.0188806898672,-0.00503228008776,0.120284269003,0.992547172853
1624516913517139832,0,1624516913516770927,world,cf10,-0.513386487961,0.489384323359,0.0139889298007,0.00438486559783,0.00291237449875,0.0771184279538,0.997008043648
1624516913517165814,0,1624516913516794533,world,cf11,0.516566991806,-0.471255272627,0.0188075304031,-0.000457757336632,-0.0147372487231,-0.11586269974,0.993155797832
1624516913517206113,0,1624516913516801308,world,cf12,0.504403531551,0.518939197063,0.0167051162571,0.0099533423098,0.0115857263231,-0.036195557316,0.99922799378
1624516913517232653,0,1624516913516807245,world,cf7,-0.464356511831,-0.491427749395,0.0168016292155,0.0204028463569,-0.00603499760933,0.119785767832,0.992571746772
1624516913527040783,0,1624516913526726982,world,cf10,-0.513422369957,0.489358484745,0.013992507942,0.00433792650544,0.00338853438612,0.0764777679799,0.99705609232
1624516913527071374,0,1624516913526748983,world,cf11,0.516585946083,-0.471106439829,0.0188400484622,0.000586763775982,-0.0145143651086,-0.115996695057,0.993143371145
1624516913527099450,0,1624516913526755059,world,cf12,0.504425048828,0.518891751766,0.0167094953358,0.00956420220101,0.0118573167328,-0.0361434106567,0.999230495903
1624516913527122847,0,1624516913526760576,world,cf7,-0.464347839355,-0.491323143244,0.0168029814959,0.0207122614267,-0.00611871649694,0.120426070224,0.992487342562
1624516913537146091,0,1624516913536842697,world,cf10,-0.513384997845,0.48939242959,0.0140019264072,0.00470419600336,0.00273113418214,0.0766728892483,0.99704146328
1624516913537174517,0,1624516913536864907,world,cf11,0.516620457172,-0.471148222685,0.0188573542982,-0.000145508152599,-0.0150037958968,-0.115884051972,0.993149410429
1624516913537210834,0,1624516913536870983,world,cf12,0.504430711269,0.518894076347,0.0167396366596,0.00938110128111,0.0121315510406,-0.0365075424541,0.999215702315
1624516913537222568,0,1624516913536876570,world,cf7,-0.464339882135,-0.491295129061,0.01680810377,0.0201863232231,-0.00607136623456,0.120240029996,0.992521025497
1624516913547109899,0,1624516913546774517,world,cf10,-0.513406574726,0.489360064268,0.0139600932598,0.00434558105197,0.00327911399714,0.0772598033993,0.996996131445
1624516913547135112,0,1624516913546798194,world,cf11,0.516643702984,-0.471186667681,0.0188366882503,0.00174545972333,-0.0135815002585,-0.115448086348,0.993219127675
1624516913547155506,0,1624516913546804340,world,cf12,0.504400193691,0.518874228001,0.0167316887528,0.00980662275922,0.0122447460992,-0.0364241563087,0.999213279125
1624516913547193639,0,1624516913546809997,world,cf7,-0.464294016361,-0.491284310818,0.0168147217482,0.0206567289984,-0.00647284878426,0.119589678256,0.992587381861
1624516913557462168,0,1624516913557182311,world,cf10,-0.513390660286,0.489415466785,0.0139857642353,0.00486156287216,0.00283174792631,0.077073319061,0.997009553565
1624516913557485007,0,1624516913557205639,world,cf11,0.516587018967,-0.471143007278,0.0188123714179,0.000185505381136,-0.0153160287469,-0.116154705448,0.993113019376
1624516913557528868,0,1624516913557212274,world,cf12,0.50438529253,0.518868029118,0.0167394056916,0.0100309445858,0.0126209218686,-0.0366418538945,0.999198412241
1624516913557557992,0,1624516913557218210,world,cf7,-0.46434366703,-0.491364508867,0.0166994407773,0.017249979434,-0.00390395925969,0.120385120308,0.992569705421
1624516913567270718,0,1624516913566995819,world,cf10,-0.513405323029,0.489348471165,0.0139709217474,0.00423197063407,0.0030987627368,0.076799084991,0.997032792158
1624516913567304801,0,1624516913567018797,world,cf11,0.516571342945,-0.471186995506,0.0188629645854,0.0006352514459,-0.0147457519752,-0.116031681212,0.993135845798
1624516913567320445,0,1624516913567025991,world,cf12,0.50439709425,0.518842101097,0.0167460199445,0.00951772630634,0.0119479994798,-0.0367521115068,0.999207656343
1624516913567350687,0,1624516913567034163,world,cf7,-0.464337348938,-0.491428852081,0.0167920570821,0.020327661212,-0.00580978394284,0.119516283424,0.992607117946
1624516913577097845,0,1624516913576769866,world,cf10,-0.513382792473,0.48934584856,0.0139845041558,0.0045844969768,0.00279808215713,0.077294098643,0.996993869308
1624516913577123407,0,1624516913576793892,world,cf11,0.516666650772,-0.471245408058,0.0187837816775,0.0014434325297,-0.0136239268084,-0.1152161734,0.993245960731
1624516913577164544,0,1624516913576800457,world,cf12,0.504430949688,0.518886387348,0.0167271606624,0.00950666338476,0.0116009489644,-0.0365080948159,0.999220796595
1624516913577187801,0,1624516913576806324,world,cf7,-0.464331924915,-0.491375356913,0.0167424976826,0.0197160527783,-0.00569894922573,0.120329494479,0.992521844595
1624516913587127444,0,1624516913586812317,world,cf10,-0.513394474983,0.489337265491,0.0139929298311,0.00410004282187,0.00265695291832,0.0767064161736,0.997041752369
1624516913587150562,0,1624516913586835295,world,cf11,0.516617119312,-0.471214413643,0.0187877044082,0.000760767895421,-0.0139920021511,-0.11543177,0.993216568319
1624516913587192188,0,1624516913586841371,world,cf12,0.504398703575,0.518922507763,0.0167476981878,0.0101067909854,0.0122417027383,-0.0362572676247,0.999216394999
1624516913587210067,0,1624516913586846958,world,cf7,-0.464384168386,-0.491380602121,0.0167747475207,0.0199305541788,-0.00571034232583,0.120638681168,0.992479961312
1624516913597188053,0,1624516913596916647,world,cf10,-0.513380467892,0.489369779825,0.0140225598589,0.00434480875821,0.00249742780028,0.0769452805557,0.997022722555
1624516913597270607,0,1624516913596940184,world,cf11,0.516567647457,-0.471127271652,0.0188607722521,-0.000890669512851,-0.0152952919679,-0.11607512617,0.993122261273
1624516913597289673,0,1624516913596946749,world,cf12,0.50440466404,0.518897473812,0.016738763079,0.0102746395092,0.0124236654515,-0.036578842063,0.99920071689
1624516913597302175,0,1624516913596952755,world,cf7,-0.46437984705,-0.49137660861,0.0168053563684,0.020537605402,-0.00582201496453,0.120712823536,0.992457921093
1624516913607174001,0,1624516913606852518,world,cf10,-0.513408839703,0.489381968975,0.0139872701839,0.00411921457808,0.00294589715244,0.0769631932712,0.997021073319
1624516913607199005,0,1624516913606877731,world,cf11,0.516639411449,-0.471190989017,0.0187774188817,0.000544200984381,-0.0142325372852,-0.115831326968,0.993166774726
1624516913607209481,0,1624516913606884227,world,cf12,0.504420101643,0.51892387867,0.0167518407106,0.00996591518453,0.0119360768588,-0.036370672109,0.999217386165
1624516913607254180,0,1624516913606890093,world,cf7,-0.464399278164,-0.491401791573,0.0168830025941,0.0222738196037,-0.00747185330426,0.12117083213,0.992353605228
1624516913617360815,0,1624516913617028227,world,cf10,-0.51342523098,0.48934262991,0.0139628378674,0.00392091099648,0.00322207073011,0.0767377712283,0.997038394037
1624516913617383863,0,1624516913617051345,world,cf11,0.51658564806,-0.4711150527,0.0188207048923,-0.000486245170169,-0.0150359560134,-0.116707785728,0.993052353274
1624516913617418016,0,1624516913617057491,world,cf12,0.504394412041,0.518901348114,0.016733944416,0.00982437196621,0.0120989867411,-0.0366275834649,0.99920744411
1624516913617435337,0,1624516913617063078,world,cf7,-0.464370906353,-0.491454690695,0.0167961493134,0.0196192807174,-0.00580183377285,0.120848679562,0.992460084435
1624516913627663148,0,1624516913627360522,world,cf10,-0.513403832912,0.48936393857,0.0139478957281,0.00423141696151,0.00335815795133,0.0771618760778,0.997003943205
1624516913627688151,0,1624516913627383290,world,cf11,0.516585171223,-0.471040070057,0.0188100356609,-0.000968508157054,-0.0155074451511,-0.116262044119,0.993097033645
1624516913627727332,0,1624516913627389367,world,cf12,0.504407346249,0.51889783144,0.0167374219745,0.00959917745165,0.0117710478371,-0.0361695225838,0.999230235662
1624516913627758203,0,1624516913627394954,world,cf7,-0.464388906956,-0.491494745016,0.0167879965156,0.0197004022779,-0.00589240152645,0.120815581862,0.992461973545
1624516913637073457,0,1624516913636737028,world,cf10,-0.51340597868,0.489349931479,0.0139900986105,0.00440946878168,0.00302115551753,0.0769254350254,0.997022520634
1624516913637117318,0,1624516913636760355,world,cf11,0.516561925411,-0.471209526062,0.0188235901296,0.00125080311977,-0.0155549971189,-0.11636824891,0.993083535359
1624516913637141134,0,1624516913636766501,world,cf12,0.504366993904,0.518909335136,0.0167525745928,0.009792476981,0.011711211981,-0.0365669358102,0.999214598629
1624516913637175846,0,1624516913636772089,world,cf7,-0.46429759264,-0.49139893055,0.0167909469455,0.0198565461304,-0.00550474647129,0.119533673267,0.992616298626
1624516913647415809,0,1624516913647065412,world,cf10,-0.513396322727,0.489361792803,0.0140085332096,0.00479588807737,0.00293706107747,0.0768064575195,0.997030160634
1624516913647441302,0,1624516913647088669,world,cf11,0.516576588154,-0.471340954304,0.0188411213458,0.000424072795678,-0.0154632379781,-0.116596090282,0.993058940932
1624516913647475734,0,1624516913647094955,world,cf12,0.504410922527,0.518865823746,0.0167170483619,0.00960929140239,0.0116406903548,-0.0366363975186,0.99921465673
1624516913647507582,0,1624516913647100612,world,cf7,-0.46435970068,-0.491491317749,0.0167378559709,0.0192242487205,-0.00497471957518,0.119566290911,0.992627615223
1624516913657201590,0,1624516913656831287,world,cf10,-0.513396322727,0.48934429884,0.0139862988144,0.00451437722164,0.00276569843384,0.0765120109919,0.997054604064
1624516913657229457,0,1624516913656856431,world,cf11,0.516597151756,-0.47121322155,0.0188190396875,0.000666106175586,-0.0153480246116,-0.116725049497,0.993045445719
1624516913657263819,0,1624516913656863135,world,cf12,0.504405260086,0.518876612186,0.0167042370886,0.00926202735163,0.0119544828161,-0.0366489855235,0.999213769446
1624516913657284004,0,1624516913656869072,world,cf7,-0.464398264885,-0.491489738226,0.0167493075132,0.0198631787981,-0.00536716306109,0.120188958003,0.992537788733
1624516913667293139,0,1624516913666991771,world,cf10,-0.513396441936,0.489357501268,0.0139824748039,0.00431904372684,0.00264557188575,0.076410068236,0.997063612957
1624516913667343705,0,1624516913667015447,world,cf11,0.516591846943,-0.47127944231,0.0188325103372,0.00175355945101,-0.0145558118698,-0.116326719425,0.993102788093
1624516913667362003,0,1624516913667021523,world,cf12,0.504392504692,0.518963694572,0.0167343560606,0.00990336468852,0.0121414743678,-0.0366756874116,0.999204384458
1624516913667381489,0,1624516913667027530,world,cf7,-0.464365631342,-0.491438448429,0.0168203301728,0.02190464795,-0.0071171044458,0.120104807923,0.992494014257
1624516913677684241,0,1624516913677323646,world,cf10,-0.513400316238,0.489332765341,0.0139548787847,0.00420441525812,0.00281138672067,0.0769542531561,0.99702179611
1624516913677710222,0,1624516913677348231,world,cf11,0.51664429903,-0.471237897873,0.0188154894859,0.00141327913607,-0.0142302209761,-0.115679043782,0.99318370017
1624516913677730267,0,1624516913677354866,world,cf12,0.50439786911,0.518950760365,0.0167477615178,0.00996152499707,0.0116753904369,-0.0363957100303,0.999219598271
1624516913677761905,0,1624516913677363037,world,cf7,-0.464372098446,-0.491377919912,0.0168163273484,0.0209356716221,-0.00644649991031,0.120525204901,0.99246854624
1624516913686964016,0,1624516913686630171,world,cf10,-0.513421297073,0.489333063364,0.0139513229951,0.00407308107665,0.00296355854096,0.0762737915712,0.997074187837
1624516913687004943,0,1624516913686653289,world,cf11,0.516571938992,-0.47127482295,0.0187843963504,0.00100317109857,-0.0143776277242,-0.116188110557,0.993122651254
1624516913687033788,0,1624516913686659644,world,cf12,0.5043861866,0.518887996674,0.0167317502201,0.00997498279542,0.0122135051254,-0.0363949135009,0.999213060504
1624516913687051738,0,1624516913686665092,world,cf7,-0.464273244143,-0.491435855627,0.0168553050607,0.021045401114,-0.00648087943789,0.118719984309,0.992683562179
1624516913697282063,0,1624516913696955691,world,cf10,-0.513410389423,0.489357799292,0.0139628360048,0.00420315432904,0.00282329676148,0.0765673087403,0.997051558206
1624516913697300012,0,1624516913696999552,world,cf11,0.516515374184,-0.471175342798,0.0188583508134,-0.000818084793934,-0.0168997698146,-0.117662181774,0.992909532383
1624516913697307695,0,1624516913697006606,world,cf12,0.504424214363,0.518836736679,0.0167131796479,0.00937943349062,0.0116577111466,-0.0361757130304,0.999233427075
1624516913697369226,0,1624516913697013590,world,cf7,-0.46427834034,-0.49132707715,0.0168381035328,0.0210077705573,-0.00653439896324,0.119626588464,0.992575163168
1624516913707163388,0,1624516913706802933,world,cf10,-0.513408184052,0.489369243383,0.0139820864424,0.00414579266553,0.00311607703,0.0770715694896,0.997012073971
1624516913707194467,0,1624516913706825981,world,cf11,0.516604363918,-0.47121027112,0.0188676714897,0.000268867823986,-0.0150798225345,-0.115861200896,0.993150899304
1624516913707217026,0,1624516913706832196,world,cf12,0.504417955875,0.518850624561,0.0167083404958,0.00940013767323,0.0118636460635,-0.0363811886759,0.999223348618
1624516913707241471,0,1624516913706837714,world,cf7,-0.464322209358,-0.491371929646,0.0167874973267,0.0199586417171,-0.00548161528949,0.120307998901,0.992520825935
1624516913717294118,0,1624516913716900279,world,cf10,-0.513375937939,0.489378064871,0.0140152294189,0.0043108077411,0.00288300849004,0.0767111789337,0.997039868925
1624516913717316468,0,1624516913716923187,world,cf11,0.516550123692,-0.471068739891,0.0188329238445,0.00015762213686,-0.0155488621824,-0.116440941869,0.99307588587
1624516913717348735,0,1624516913716929333,world,cf12,0.504418969154,0.518888235092,0.0167229175568,0.00919074772881,0.0116051698949,-0.0364648559257,0.999225282141
1624516913717373738,0,1624516913716934920,world,cf7,-0.464360207319,-0.491367399693,0.0167965721339,0.0203264938476,-0.00586504784153,0.120834361245,0.992447223788
1624516913727324276,0,1624516913726970736,world,cf10,-0.513400971889,0.48933750391,0.0139902457595,0.00461699662236,0.00346296481417,0.077051056464,0.997010444235
1624516913727344600,0,1624516913726997625,world,cf11,0.516582667828,-0.47119179368,0.0188607126474,0.000368607905641,-0.0146809511321,-0.115387419182,0.993212000178
1624516913727353750,0,1624516913727005377,world,cf12,0.50443559885,0.518894910812,0.0167540553957,0.00954416783181,0.0112457789553,-0.0359722829093,0.99924393227
1624516913727400544,0,1624516913727012292,world,cf7,-0.464358001947,-0.491420477629,0.0168142914772,0.02004335444,-0.00539284757153,0.119869962086,0.992572603555
1624516913737094482,0,1624516913736742338,world,cf10,-0.513422131538,0.48935687542,0.0140255503356,0.00476522840973,0.00303277306099,0.0766258693435,0.997043916301
1624516913737121860,0,1624516913736764339,world,cf11,0.516600430012,-0.471260398626,0.0188426859677,0.000352860218818,-0.0149522998686,-0.11593543546,0.99314413809
1624516913737152800,0,1624516913736770205,world,cf12,0.504413068295,0.5188626647,0.0167302507907,0.00995357708384,0.01225290449,-0.0364076979912,0.999212325866
1624516913737182832,0,1624516913736775444,world,cf7,-0.464363276958,-0.491414189339,0.0168458726257,0.0214623737144,-0.00622517344251,0.119958394835,0.992527378584
1624516913747134697,0,1624516913746796662,world,cf10,-0.513408720493,0.489332765341,0.0139938667417,0.00451146717466,0.00286276451832,0.0768414883702,0.997029005049
1624516913747154742,0,1624516913746818802,world,cf11,0.516542255878,-0.47127699852,0.0188530571759,-0.000840322174458,-0.0155514888784,-0.116359152138,0.993085088382
1624516913747162634,0,1624516913746824459,world,cf12,0.504397988319,0.518890500069,0.0167367327958,0.00928958211324,0.0118150783699,-0.0366571614317,0.999214871838
1624516913747208590,0,1624516913746829697,world,cf7,-0.464401930571,-0.491428434849,0.0167493466288,0.0195946413381,-0.00497337894747,0.12062029501,0.992492851342
1624516913757447297,0,1624516913757115407,world,cf10,-0.51340430975,0.48934340477,0.0139336390421,0.00382053984366,0.00326262803937,0.0765680953904,0.997051696504
1624516913757480751,0,1624516913757137757,world,cf11,0.516606807709,-0.471251547337,0.0188421327621,0.0004331016709,-0.0143412762343,-0.115179941823,0.993241018696
1624516913757502681,0,1624516913757143623,world,cf12,0.504424095154,0.518877565861,0.0167177785188,0.00944142672601,0.0117423764374,-0.0363776861243,0.999224519319
1624516913757549685,0,1624516913757148931,world,cf7,-0.464316755533,-0.491425722837,0.0168521814048,0.0217048504442,-0.00702248039166,0.119790448225,0.992537068703
1624516913767150384,0,1624516913766776450,world,cf10,-0.513414621353,0.489309847355,0.013919393532,0.0040837219702,0.00298227654418,0.0767654566534,0.997036355358
1624516913767174899,0,1624516913766800825,world,cf11,0.516520500183,-0.471233665943,0.0187567211688,-0.000866863252189,-0.0159164465156,-0.116508784046,0.99306173953
1624516913767212753,0,1624516913766807250,world,cf12,0.504441022873,0.518904209137,0.0167343374342,0.00973233392774,0.0112321525633,-0.0358718670333,0.999245880442
1624516913767224277,0,1624516913766813257,world,cf7,-0.46433287859,-0.491453319788,0.0167348291725,0.0195047236643,-0.00575865048101,0.120522056991,0.992502311069
1624516913777173558,0,1624516913776864297,world,cf10,-0.513389289379,0.489387542009,0.0139326881617,0.00428070255461,0.0032613742167,0.0770415194725,0.997013361646
1624516913777206035,0,1624516913776902641,world,cf11,0.516584277153,-0.471163362265,0.0187861025333,-0.00151100065032,-0.0162827592992,-0.116779779671,0.99302319796
1624516913777237324,0,1624516913776908368,world,cf12,0.504426777363,0.518931031227,0.0167107824236,0.0097101302169,0.0111118805784,-0.036184753981,0.999236159804
1624516913777258975,0,1624516913776913536,world,cf7,-0.464318364859,-0.49135735631,0.0167707707733,0.0201987234372,-0.00619949311463,0.119958759161,0.992554015637
1624516913787177246,0,1624516913786849547,world,cf10,-0.513390779495,0.489377379417,0.0139750409871,0.00464397982767,0.00262035376121,0.0770842413,0.99701032439
1624516913787200992,0,1624516913786873643,world,cf11,0.516619384289,-0.471112132072,0.0187426637858,0.000891181885394,-0.0145298682286,-0.116099746629,0.993130876349
1624516913787223970,0,1624516913786880138,world,cf12,0.504407763481,0.518939137459,0.0166942290962,0.00980546308431,0.0120363456903,-0.0364731394876,0.999214035816
1624516913787236542,0,1624516913786886074,world,cf7,-0.464325845242,-0.491369634867,0.0167252868414,0.019942622451,-0.0058580347737,0.120521589021,0.992493084015
1624516913797170318,0,1624516913796825997,world,cf10,-0.513417184353,0.489371746778,0.0139730582014,0.00434681807229,0.00310082910962,0.0769865788692,0.997017831689
1624516913797204401,0,1624516913796847578,world,cf11,0.516576230526,-0.471052616835,0.0187547579408,-0.000693943418743,-0.0145662196013,-0.115343013416,0.993218673276
1624516913797234712,0,1624516913796853305,world,cf12,0.504368901253,0.518954336643,0.0167270991951,0.0103043371084,0.0122081764699,-0.036343800853,0.999211643849
1624516913797253220,0,1624516913796858613,world,cf7,-0.464261204004,-0.491356819868,0.0167589187622,0.0198739295858,-0.00570420346111,0.119447905957,0.992625149162
1624516913807135663,0,1624516913806823049,world,cf10,-0.513386130333,0.489367544651,0.0140073951334,0.00427242507992,0.00293963518811,0.0770661309062,0.997012495607
1624516913807155847,0,1624516913806845818,world,cf11,0.516573011875,-0.47121244669,0.0188539233059,-0.000525027875481,-0.0149639280416,-0.115539091647,0.993190074208
1624516913807163809,0,1624516913806851615,world,cf12,0.504394829273,0.518883228302,0.0167435966432,0.0101735947891,0.0125249524392,-0.0362600207364,0.999212106828
1624516913807171980,0,1624516913806856783,world,cf7,-0.464301764965,-0.491400569677,0.0168432909995,0.0214927584629,-0.00666722319937,0.119887976149,0.992532358487
1624516913817154646,0,1624516913816819544,world,cf10,-0.513435423374,0.489324450493,0.0139909051359,0.00440006752194,0.00314871107147,0.0767902512723,0.997032588401
1624516913817185656,0,1624516913816843011,world,cf11,0.51654368639,-0.471193671227,0.0188407953829,-0.000316075082583,-0.015796208961,-0.116523923015,0.993062211165
1624516913817204862,0,1624516913816849576,world,cf12,0.504417657852,0.518863618374,0.0167332794517,0.0096039372075,0.0122304186874,-0.0364419708101,0.999214773716
1624516913817214640,0,1624516913816855652,world,cf7,-0.464408874512,-0.491442978382,0.0167344175279,0.0192727702607,-0.00529716383732,0.12113707216,0.99243453695
1624516913827255205,0,1624516913826978421,world,cf10,-0.513368487358,0.489270955324,0.0139885637909,0.00410128282481,0.00321705143189,0.0770376381849,0.997014559754
1624516913827285307,0,1624516913827000491,world,cf11,0.516476213932,-0.4710739851,0.0189262963831,-0.00214996728036,-0.0172486159151,-0.117467047776,0.992924647482
1624516913827305281,0,1624516913827006288,world,cf12,0.504427075386,0.518877744675,0.016787102446,0.00995236801222,0.0120740921574,-0.0360824793686,0.999226311379
1624516913827351796,0,1624516913827011596,world,cf7,-0.464396208525,-0.491473793983,0.0167742874473,0.0193665251981,-0.00510430803887,0.121193633012,0.992426816979
1624516913837554953,0,1624516913837262035,world,cf10,-0.513397037983,0.489268630743,0.0139572750777,0.00418690589626,0.00325546341926,0.0769393439607,0.997021669337
1624516913837583937,0,1624516913837284525,world,cf11,0.516457140446,-0.471177130938,0.0189231336117,-0.00143880185272,-0.0175293811636,-0.117480454983,0.992919429431
1624516913837623259,0,1624516913837290252,world,cf12,0.504428684711,0.518876194954,0.0167897082865,0.00982276565576,0.0116995446119,-0.0362675871251,0.999225347985
1624516913837643513,0,1624516913837295560,world,cf7,-0.464387327433,-0.491551995277,0.0167663767934,0.0194766181565,-0.00561701912168,0.120371234546,0.992521977759
1624516913847069188,0,1624516913846753991,world,cf10,-0.513374507427,0.489292532206,0.0139412786812,0.00452246931941,0.00343876957572,0.0770274542744,0.997012784985
1624516913847096356,0,1624516913846778505,world,cf11,0.51655369997,-0.471222311258,0.018981365487,-0.00187276690865,-0.0172487071616,-0.117973001654,0.992865220322
1624516913847129950,0,1624516913846785070,world,cf12,0.504422545433,0.518860697746,0.016744973138,0.00970397136343,0.0119996461002,-0.0365707871203,0.99921189893
1624516913847154046,0,1624516913846791007,world,cf7,-0.464292347431,-0.491432011127,0.0167109277099,0.0179256309715,-0.00399030179926,0.119261292718,0.9926930509
1624516913857099974,0,1624516913856812644,world,cf10,-0.513385295868,0.489343434572,0.0139830615371,0.00399951599387,0.00257744715865,0.0765744465249,0.99705251355
1624516913857130495,0,1624516913856835762,world,cf11,0.51648414135,-0.471108138561,0.0189355947077,-0.000880516673146,-0.016976094164,-0.11808024549,0.992858546089
1624516913857158153,0,1624516913856841838,world,cf12,0.50438952446,0.518959879875,0.0167353283614,0.00981245293621,0.0116932970802,-0.0367589522393,0.999207567026
1624516913857177429,0,1624516913856847565,world,cf7,-0.464325278997,-0.491477012634,0.0167287942022,0.0187262726666,-0.00484034143751,0.119691231367,0.992622741499
1624516913867263531,0,1624516913866966213,world,cf10,-0.513408780098,0.489347338676,0.0139791686088,0.00432620697751,0.00294961795404,0.0769025364029,0.99702486608
1624516913867308649,0,1624516913866989191,world,cf11,0.516481757164,-0.471079051495,0.0188687182963,-0.00180410813297,-0.0173918249367,-0.117954267979,0.992865076576
1624516913867332954,0,1624516913866995477,world,cf12,0.504417419434,0.518931508064,0.0167198758572,0.0100355659915,0.0120607716208,-0.0365914066826,0.999207132761
1624516913867386732,0,1624516913867000994,world,cf7,-0.464345097542,-0.49133759737,0.0167022030801,0.018724955394,-0.00496442330639,0.120256102134,0.992553877856
1624516913877453278,0,1624516913877146881,world,cf10,-0.513405203819,0.489411979914,0.0139684528112,0.00455174360794,0.00257991323333,0.0770268065191,0.997015294143
1624516913877482192,0,1624516913877188437,world,cf11,0.516493320465,-0.471057295799,0.018879853189,-0.00269608525271,-0.0174972079507,-0.116786889607,0.992999194992
1624516913877504961,0,1624516913877194723,world,cf12,0.504421234131,0.51892209053,0.0167014189065,0.00966040315943,0.0119390225853,-0.0364080105508,0.999218991572
1624516913877533945,0,1624516913877200729,world,cf7,-0.464269429445,-0.491348862648,0.0168106332421,0.0216745043706,-0.00666298387209,0.118905886278,0.992646568883
1624516913887461645,0,1624516913887147496,world,cf10,-0.513428032398,0.48937150836,0.0140033615753,0.00417294067652,0.00209520940351,0.0772194925402,0.997003182861
1624516913887489442,0,1624516913887169985,world,cf11,0.516501784325,-0.471086531878,0.0189240146428,-0.00298094775471,-0.0172397011611,-0.116919965626,0.992987224637
1624516913887507531,0,1624516913887175991,world,cf12,0.504412710667,0.518927812576,0.0167232044041,0.00977786810101,0.012104468339,-0.0363644731587,0.99921744392
1624516913887569691,0,1624516913887181998,world,cf7,-0.46431812644,-0.491337001324,0.0168208051473,0.0217592944194,-0.00728378832368,0.119812103581,0.992531379539
1624516913897105856,0,1624516913896817618,world,cf10,-0.513374507427,0.489322066307,0.013960974291,0.00430301252143,0.00306381332649,0.0772036241754,0.99700135283
1624516913897134701,0,1624516913896841294,world,cf11,0.516526401043,-0.471154391766,0.0189219694585,-0.00276960218251,-0.0174837351584,-0.11697266051,0.992977363791
1624516913897181285,0,1624516913896847580,world,cf12,0.504432797432,0.518856108189,0.0167257878929,0.00971836494361,0.0121758225148,-0.0364630032591,0.999213566823
1624516913897196930,0,1624516913896853167,world,cf7,-0.46437177062,-0.491408616304,0.0167985334992,0.0211912227708,-0.00698715733633,0.12080985409,0.992424854014
1624516913907267596,0,1624516913906965739,world,cf10,-0.513394236565,0.489303529263,0.0139566315338,0.00414176713687,0.00290253089757,0.0769864263582,0.997019313372
1624516913907291901,0,1624516913906988996,world,cf11,0.516501784325,-0.471038252115,0.0189034398645,-0.00140758313027,-0.0166499689522,-0.117080472621,0.992981852893
1624516913907330594,0,1624516913906995282,world,cf12,0.504422783852,0.51882070303,0.0167189072818,0.00931720501306,0.0116812723042,-0.0360993806815,0.999236494671
1624516913907347775,0,1624516913907000870,world,cf7,-0.464335173368,-0.49146014452,0.0168011002243,0.0209529083936,-0.0073389709246,0.119950063935,0.992531660602
1624516913917231474,0,1624516913916935554,world,cf10,-0.513432979584,0.489318221807,0.0139809660614,0.00442963888666,0.0030901318196,0.0766793793577,0.997041173757
1624516913917251868,0,1624516913916953782,world,cf11,0.516562998295,-0.471084296703,0.0188900716603,-0.000870024508593,-0.0160626641308,-0.116725759627,0.9930339022
1624516913917265068,0,1624516913916978856,world,cf12,0.504414916039,0.518884122372,0.0167484283447,0.00962988297584,0.0116338405149,-0.0364292863955,0.999222110545
1624516913917296986,0,1624516913916985141,world,cf7,-0.464378833771,-0.491491049528,0.0167121104896,0.0182265059967,-0.00449805981403,0.120665168983,0.992515732334
1624516913927151910,0,1624516913926865558,world,cf10,-0.513369977474,0.489307165146,0.0139867048711,0.00416726289388,0.0029534320088,0.0769217380097,0.997024050553
1624516913927175168,0,1624516913926889793,world,cf11,0.51654201746,-0.471257090569,0.018916355446,-0.00186289886001,-0.0171389378727,-0.117204005666,0.992958210335
1624516913927205200,0,1624516913926896358,world,cf12,0.504445374012,0.518887639046,0.0167393703014,0.0098252322149,0.011533956712,-0.0360018379235,0.999236858968
1624516913927252413,0,1624516913926902155,world,cf7,-0.464470028877,-0.491585761309,0.016699699685,0.0178148634783,-0.00428664311891,0.121055722272,0.992476582815
1624516913937212729,0,1624516913936918345,world,cf10,-0.513404488564,0.489315748215,0.0139561984688,0.00464018158555,0.00286721277453,0.0772392979405,0.996997662314
1624516913937249047,0,1624516913936939018,world,cf11,0.516592741013,-0.471055954695,0.0188636090606,0.00121114201622,-0.0148378373515,-0.116653968021,0.993061037129
1624516913937276076,0,1624516913936944745,world,cf12,0.504392445087,0.518917560577,0.0167155172676,0.0100128847524,0.0119894753813,-0.036482017954,0.999212218192
1624516913937288019,0,1624516913936950053,world,cf7,-0.464465111494,-0.49149993062,0.0166248288006,0.0169245955606,-0.00326615247948,0.122107342609,0.992367213885
1624516913947176956,0,1624516913946848000,world,cf10,-0.513377130032,0.489345252514,0.0139957396314,0.00434517711285,0.00299581855554,0.0768733231432,0.997026898682
1624516913947208385,0,1624516913946870419,world,cf11,0.516587793827,-0.471199244261,0.0188213158399,-0.000597951689012,-0.0154690422765,-0.116689292255,0.993047813682
1624516913947222423,0,1624516913946876705,world,cf12,0.504445433617,0.518885195255,0.0167216230184,0.00957665584815,0.0114778102394,-0.0363477279335,0.999227396647
1624516913947240792,0,1624516913946882223,world,cf7,-0.464451402426,-0.491537868977,0.0166777800769,0.0171648211059,-0.00340164528599,0.121419431906,0.992447036008
1624516913957555487,0,1624516913957217381,world,cf10,-0.513426303864,0.489328891039,0.0139622977003,0.00465590123194,0.00297952692392,0.0768140238144,0.997030115267
1624516913957600465,0,1624516913957239661,world,cf11,0.516550183296,-0.471145749092,0.0188541878015,-0.000708220591781,-0.0163102095696,-0.116989427471,0.992998967445
1624516913957630078,0,1624516913957246296,world,cf12,0.504423081875,0.518885910511,0.0167192202061,0.00977034219706,0.0115764095088,-0.0363350139861,0.999224846526
1624516913957655989,0,1624516913957252232,world,cf7,-0.464398890734,-0.49139803648,0.0168051850051,0.0208780517847,-0.00668834737441,0.120669480935,0.992450628159
1624516913967059454,0,1624516913966773172,world,cf10,-0.513421654701,0.489329099655,0.0139678381383,0.0040643672136,0.0024030965647,0.076688477055,0.99704392257
1624516913967080407,0,1624516913966802226,world,cf11,0.516582608223,-0.47112005949,0.0187554974109,-5.94910500254e-05,-0.0142453157275,-0.115424091342,0.993214149405
1624516913967099334,0,1624516913966811166,world,cf12,0.504399657249,0.518946886063,0.0167616326362,0.0102110633935,0.0117586700318,-0.0362228931932,0.999222382592
