%time,field.transforms0.header.seq,field.transforms0.header.stamp,field.transforms0.header.frame_id,field.transforms0.child_frame_id,field.transforms0.transform.translation.x,field.transforms0.transform.translation.y,field.transforms0.transform.translation.z,field.transforms0.transform.rotation.x,field.transforms0.transform.rotation.y,field.transforms0.transform.rotation.z,field.transforms0.transform.rotation.w
1624516342653416902,0,1624516342653139838,world,cf10,-0.513369977474,0.495330810547,0.0137669686228,0.00187624688616,0.00570721692556,0.0703336895845,0.997505428297
1624516342653444000,0,1624516342653156111,world,cf11,0.519348025322,-0.466071754694,0.0185682382435,0.00444906819689,-0.0105104616268,-0.0678314357412,0.997631511288
1624516342653490096,0,1624516342653161489,world,cf12,0.508512437344,0.512098431587,0.0167793463916,0.00713976319691,0.0128445799877,0.0254683098694,0.999567609389
1624516342653519360,0,1624516342653166378,world,cf7,-0.45731434226,-0.492089420557,0.0165788382292,0.016637653292,-0.00621693075826,-0.0144062015852,0.99973846561
1624516342663482819,0,1624516342663126345,world,cf10,-0.513384580612,0.495370209217,0.0137992557138,0.00216671107665,0.00601197793009,0.0698550583101,0.997536682189
1624516342663520534,0,1624516342663145831,world,cf11,0.519351065159,-0.466071128845,0.01855751127,0.00523440576294,-0.00965802911643,-0.0680924268327,0.997618536755
1624516342663535131,0,1624516342663151070,world,cf12,0.508512556553,0.512028574944,0.0167616438121,0.00698001307244,0.0128719359086,0.0257076377812,0.999562259213
1624516342663579620,0,1624516342663155819,world,cf7,-0.457271099091,-0.492086201906,0.0165975745767,0.0161412448944,-0.00580136282796,-0.0150252569028,0.999739989226
1624516342673458711,0,1624516342673162441,world,cf10,-0.513348400593,0.495342224836,0.0138098206371,0.00185151497933,0.00569675987033,0.0701281930853,0.997520002483
1624516342673496425,0,1624516342673181368,world,cf11,0.519413113594,-0.466057598591,0.0185106806457,0.00511222505276,-0.00975141368743,-0.0662721303222,0.997740838008
1624516342673519962,0,1624516342673186327,world,cf12,0.508551716805,0.512093305588,0.0168251879513,0.00717577795781,0.0127144435848,0.025930726608,0.999557126208
1624516342673538819,0,1624516342673190796,world,cf7,-0.457269370556,-0.492158234119,0.0165998023003,0.0159539818078,-0.00583198417618,-0.0149483127112,0.99974397041
1624516342683374817,0,1624516342683049213,world,cf10,-0.513333082199,0.495390951633,0.0138154691085,0.00197374705191,0.00640112490509,0.0708517733457,0.997464363342
1624516342683414697,0,1624516342683070864,world,cf11,0.519351065159,-0.466157197952,0.0185309369117,0.00369337446304,-0.010845319047,-0.0681754777525,0.99760755925
1624516342683439630,0,1624516342683077080,world,cf12,0.508521914482,0.512077510357,0.0167992766947,0.00685787847297,0.0130797083361,0.025355264339,0.999569407947
1624516342683460932,0,1624516342683082738,world,cf7,-0.457267463207,-0.492142230272,0.0166235789657,0.0171576849381,-0.00603771300263,-0.014286642833,0.999732490072
1624516342693888632,0,1624516342693518050,world,cf10,-0.513359129429,0.495348423719,0.0138264354318,0.00166036001323,0.00584967943057,0.0702615525003,0.997510069471
1624516342693918734,0,1624516342693542285,world,cf11,0.51941972971,-0.466178864241,0.0185614936054,0.00618426842002,-0.0096680328621,-0.0665496901152,0.997717105552
1624516342693954493,0,1624516342693548990,world,cf12,0.508530497551,0.512037992477,0.0167834684253,0.00695553975743,0.0128965078853,0.0259443221602,0.99955599778
1624516342693971534,0,1624516342693554857,world,cf7,-0.457279026508,-0.492098599672,0.0165891256183,0.0165390074214,-0.00541153363755,-0.0144195556606,0.99974459386
1624516342703341685,0,1624516342703092489,world,cf10,-0.51335734129,0.495387941599,0.0138210114092,0.00220327662061,0.00601573709414,0.0703981967978,0.997498396173
1624516342703361381,0,1624516342703112324,world,cf11,0.519456446171,-0.466021299362,0.0185118168592,0.00587282474724,-0.0101314178639,-0.0676070159731,0.997643300831
1624516342703367737,0,1624516342703117492,world,cf12,0.508526563644,0.512023687363,0.0167588070035,0.00666825851706,0.0132890316896,0.0253315663332,0.999568530773
1624516342703375210,0,1624516342703122242,world,cf7,-0.457263380289,-0.492064744234,0.0166058782488,0.0163512714374,-0.00578716165045,-0.0143345594552,0.999746800489
1624516342713472207,0,1624516342713161270,world,cf10,-0.513289868832,0.495351791382,0.0138288214803,0.00128090043019,0.00573572651668,0.0706223914482,0.997485808702
1624516342713520747,0,1624516342713177962,world,cf11,0.519417643547,-0.46614459157,0.0185775272548,0.00588530405138,-0.00835221926844,-0.0670932766227,0.997694390012
1624516342713540373,0,1624516342713182083,world,cf12,0.508534669876,0.512079894543,0.0168003942817,0.00711035583589,0.0132488756409,0.025308251197,0.999566607363
1624516342713555110,0,1624516342713185855,world,cf7,-0.457286000252,-0.492174983025,0.0166574697942,0.0165033733857,-0.00631314198701,-0.0150779087287,0.999730183386
1624516342723617465,0,1624516342723289277,world,cf10,-0.51330602169,0.495319515467,0.013790470548,0.00159992291767,0.00596444737187,0.0706201802815,0.997484163158
1624516342723639047,0,1624516342723309113,world,cf11,0.519420623779,-0.466263711452,0.0185788758099,0.00489047731133,-0.0108563444235,-0.0672489929869,0.99766517227
1624516342723657485,0,1624516342723314211,world,cf12,0.508536577225,0.512083053589,0.0168114509434,0.00701689996797,0.0124941486375,0.0259592140937,0.999560292613
1624516342723684584,0,1624516342723318890,world,cf7,-0.457350999117,-0.492123544216,0.0166406799108,0.0159725676979,-0.00544701562367,-0.014490917303,0.9997525796
1624516342733400173,0,1624516342733115846,world,cf10,-0.513349950314,0.495348095894,0.0138154141605,0.0015247611915,0.00612663426574,0.0701885367223,0.997513763699
1624516342733419590,0,1624516342733131631,world,cf11,0.519453763962,-0.46637147665,0.0185587275773,0.00548604237267,-0.00992263877768,-0.0685172619257,0.997585499793
1624516342733440123,0,1624516342733137078,world,cf12,0.50852060318,0.512064993382,0.0167479924858,0.00689576499741,0.0130835339374,0.0253179587563,0.999570042833
1624516342733475952,0,1624516342733142037,world,cf7,-0.45726788044,-0.492065012455,0.0165882445872,0.016063303218,-0.00563489801646,-0.0144440908419,0.999750762167
1624516342743388776,0,1624516342743065826,world,cf10,-0.513385415077,0.495359838009,0.0137385353446,0.00178726318888,0.00619274932225,0.0698870266489,0.997534089168
1624516342743419506,0,1624516342743087407,world,cf11,0.519371926785,-0.466216027737,0.0185508318245,0.00476378072932,-0.00966569895116,-0.0669045388112,0.997701189407
1624516342743449399,0,1624516342743094042,world,cf12,0.508529007435,0.512024581432,0.0167444292456,0.00674925640827,0.0130049295548,0.0255586445052,0.999565943316
1624516342743484599,0,1624516342743099979,world,cf7,-0.457278877497,-0.492130577564,0.0166292525828,0.016100654499,-0.00519954370501,-0.0146645876745,0.999749310346
1624516342753493596,0,1624516342753191180,world,cf10,-0.513336598873,0.495361715555,0.0138083659112,0.00169648754612,0.006060103444,0.0703856128242,0.997500006308
1624516342753538714,0,1624516342753214646,world,cf11,0.519386172295,-0.466165542603,0.0185357704759,0.00583176022514,-0.00945552138153,-0.0668790921653,0.997699238608
1624516342753558479,0,1624516342753221631,world,cf12,0.508517324924,0.512026071548,0.0167332161218,0.00690054175607,0.0130619784871,0.0254755199246,0.99956628851
1624516342753584181,0,1624516342753227497,world,cf7,-0.457283198833,-0.491999357939,0.0165505912155,0.0159109850266,-0.00556328476351,-0.0144151589611,0.999754016551
1624516342763519843,0,1624516342763160156,world,cf10,-0.513320028782,0.49534162879,0.0138073815033,0.00119868550806,0.00559053250073,0.0702435679827,0.997513483747
1624516342763547780,0,1624516342763184182,world,cf11,0.519410729408,-0.466159254313,0.0185322072357,0.00577982420877,-0.00959342995716,-0.0675634815018,0.997652111561
1624516342763572155,0,1624516342763190747,world,cf12,0.508543372154,0.512025892735,0.0167841184884,0.00683123803653,0.0126751735625,0.0257594566424,0.999564467433
1624516342763596809,0,1624516342763196684,world,cf7,-0.457266062498,-0.491995275021,0.0165969114751,0.0174569861176,-0.00594620410292,-0.0136514502487,0.999736732444
1624516342773880215,0,1624516342773617539,world,cf10,-0.513336002827,0.495337218046,0.0138024603948,0.00201280947743,0.00621010447516,0.0708662559574,0.997464464012
1624516342773898793,0,1624516342773640307,world,cf11,0.51940625906,-0.466240435839,0.0184899568558,0.00476058300011,-0.00986759285727,-0.0676595205901,0.997648313152
1624516342773928336,0,1624516342773646593,world,cf12,0.508529901505,0.512048721313,0.016788970679,0.00703133318157,0.012790388454,0.0256482903442,0.999564470917
1624516342773971778,0,1624516342773652250,world,cf7,-0.457296580076,-0.492099165916,0.0166513584554,0.0166702182299,-0.00593655387709,-0.014198618429,0.999742597065
1624516342783238702,0,1624516342782968274,world,cf10,-0.513298213482,0.495323240757,0.0138221457601,0.00170373045879,0.00587265853549,0.0706826905298,0.997480108295
1624516342783275579,0,1624516342782989925,world,cf11,0.519378721714,-0.466199308634,0.018565479666,0.0042386822582,-0.0103187540578,-0.0685773628707,0.997583431192
1624516342783296182,0,1624516342782996141,world,cf12,0.508533537388,0.512081027031,0.0168433431536,0.00661272694683,0.0122358379774,0.0259862597794,0.99956554083
1624516342783314551,0,1624516342783002846,world,cf7,-0.457300722599,-0.492120027542,0.0166928507388,0.0171146276825,-0.00622653899193,-0.0147596938605,0.999725197826
1624516342793472241,0,1624516342793184073,world,cf10,-0.513335883617,0.495314747095,0.0138236936182,0.00117123337076,0.00570053563311,0.0704761225283,0.997496490349
1624516342793498571,0,1624516342793206282,world,cf11,0.519375145435,-0.466218441725,0.0185085199773,0.00570150782045,-0.00978731535356,-0.0670840282943,0.997683033039
1624516342793506533,0,1624516342793213057,world,cf12,0.508516192436,0.512032091618,0.0167594943196,0.0067135249378,0.0130071696114,0.0253274217676,0.999572040339
1624516342793544737,0,1624516342793218435,world,cf7,-0.457291454077,-0.492150515318,0.0166604388505,0.0170751659022,-0.0066594187306,-0.014857477331,0.999721634366
1624516342803568819,0,1624516342803257184,world,cf10,-0.513343513012,0.495356529951,0.0137712704018,0.0019789961717,0.00648288602567,0.0701563717329,0.997512976992
1624516342803598921,0,1624516342803274924,world,cf11,0.519390642643,-0.466239899397,0.0185057334602,0.0049434985384,-0.00920146261906,-0.0673827099382,0.997672524083
1624516342803621480,0,1624516342803279045,world,cf12,0.508528828621,0.512064814568,0.0167837515473,0.00672462773192,0.01292800446,0.0256079120351,0.999565846217
1624516342803633912,0,1624516342803283445,world,cf7,-0.457259654999,-0.492033809423,0.0165944173932,0.016980144971,-0.00575029984437,-0.0137309635663,0.999745002172
1624516342813056864,0,1624516342812704231,world,cf10,-0.513341486454,0.495347172022,0.0138161377981,0.00139117381528,0.00593315581075,0.0703321103952,0.997505015799
1624516342813081378,0,1624516342812721692,world,cf11,0.519411444664,-0.466139703989,0.0184953399003,0.00460559468738,-0.00773628357384,-0.067065799648,0.997707931677
1624516342813125099,0,1624516342812726301,world,cf12,0.508544206619,0.512067496777,0.0167854875326,0.00706790582144,0.0127045625441,0.0258469994403,0.999560188992
1624516342813142630,0,1624516342812730422,world,cf7,-0.457323551178,-0.492145448923,0.0166283603758,0.015919907157,-0.00590169295212,-0.015211645646,0.999740132441
1624516342823398658,0,1624516342823108953,world,cf10,-0.513334572315,0.495366513729,0.0137932822108,0.00168719855655,0.0058935788523,0.0703769859624,0.997501628538
1624516342823431693,0,1624516342823134166,world,cf11,0.519359469414,-0.466269284487,0.0184886623174,0.00523413034626,-0.0102839044521,-0.0679939036667,0.997619002552
1624516342823444753,0,1624516342823140870,world,cf12,0.508531391621,0.512042820454,0.0167703796178,0.0067379450788,0.0124679262629,0.0257859768032,0.999567023421
1624516342823475623,0,1624516342823147017,world,cf7,-0.457267671824,-0.492116004229,0.0166380442679,0.016745254112,-0.00619814022126,-0.014915418557,0.999729318272
1624516342833359672,0,1624516342833044894,world,cf10,-0.513353407383,0.495356887579,0.0137745328248,0.00219189884171,0.00645795453629,0.0703063893388,0.997502131336
1624516342833390054,0,1624516342833061237,world,cf11,0.519360899925,-0.466321885586,0.0185146722943,0.00429014248931,-0.00986229797823,-0.0670567292496,0.997691197124
1624516342833409819,0,1624516342833065777,world,cf12,0.508522331715,0.512064516544,0.0167832896113,0.00698857673839,0.0126644151688,0.0256777186815,0.99956561923
1624516342833422111,0,1624516342833069898,world,cf7,-0.457274198532,-0.492140412331,0.0166093744338,0.016344946196,-0.00583909183933,-0.0147821840914,0.999740083609
1624516342843376351,0,1624516342843078685,world,cf10,-0.51335811615,0.495344698429,0.013806595467,0.00164876471987,0.00615614144809,0.0703175147436,0.997504301052
1624516342843399120,0,1624516342843096843,world,cf11,0.519359707832,-0.466060787439,0.0185819026083,0.00433614466725,-0.0114127469203,-0.0683299584075,0.997588073225
1624516342843439558,0,1624516342843101453,world,cf12,0.508516848087,0.512029230595,0.0167819168419,0.00703434881161,0.0125147896279,0.0257945750716,0.999564173965
1624516342843487610,0,1624516342843105504,world,cf7,-0.457259327173,-0.492026507854,0.0165698230267,0.0159476922793,-0.00495864316927,-0.0142423987161,0.999759089505
1624516342853430326,0,1624516342853127770,world,cf10,-0.51336812973,0.495333492756,0.0138115258887,0.00200287021123,0.00581356421129,0.0704641644722,0.997495359642
1624516342853464409,0,1624516342853145370,world,cf11,0.519391834736,-0.466245234013,0.0185441039503,0.00433902572924,-0.0110605142521,-0.0690228477339,0.997544327021
1624516342853504848,0,1624516342853150120,world,cf12,0.508526325226,0.512013792992,0.0167698413134,0.00708149009332,0.0127361660459,0.0255703835962,0.999566805199
1624516342853549058,0,1624516342853154590,world,cf7,-0.457300662994,-0.492226719856,0.0166032649577,0.0158813580873,-0.00556533657038,-0.0151070918708,0.999744259933
1624516342863217714,0,1624516342862892389,world,cf10,-0.51336067915,0.495271831751,0.0138139137998,0.00188234136549,0.00596679009772,0.0705726304847,0.997487021486
1624516342863236990,0,1624516342862909850,world,cf11,0.519405961037,-0.46604719758,0.0185283087194,0.00519103747877,-0.00945733868772,-0.066744305803,0.997711786799
1624516342863259968,0,1624516342862914809,world,cf12,0.50853985548,0.512006819248,0.0167918205261,0.00699256453431,0.013014993626,0.0257015712474,0.999560475018
1624516342863283575,0,1624516342862919348,world,cf7,-0.457320541143,-0.492140352726,0.0166768319905,0.0167863401465,-0.00597799785189,-0.0148438266911,0.999731035397
1624516342873506288,0,1624516342873182430,world,cf10,-0.513342261314,0.495315492153,0.0137914419174,0.0017589816476,0.00591125490759,0.0706570013551,0.997481604446
1624516342873530244,0,1624516342873201008,world,cf11,0.519381403923,-0.466198861599,0.0185371562839,0.00528162102237,-0.00847845880668,-0.067322819122,0.997681240798
1624516342873553990,0,1624516342873206107,world,cf12,0.508538424969,0.512044429779,0.0168173629791,0.00711982754697,0.0125035207767,0.0259511810037,0.999559656163
1624516342873572358,0,1624516342873211275,world,cf7,-0.457311600447,-0.49222356081,0.0166146252304,0.0156014417655,-0.0053811700463,-0.015200348152,0.999748262034
1624516342883444185,0,1624516342883143375,world,cf10,-0.513362050056,0.495347976685,0.013812401332,0.00172015260989,0.00543831955727,0.0698948447296,0.997538057638
1624516342883462553,0,1624516342883162652,world,cf11,0.519414305687,-0.466214388609,0.0184900257736,0.00517485531557,-0.00977256164087,-0.0679673637474,0.997626260368
1624516342883479874,0,1624516342883167750,world,cf12,0.508528769016,0.512014865875,0.0167679302394,0.00713059094496,0.0129840033261,0.0256107699283,0.999562233577
1624516342883518008,0,1624516342883172430,world,cf7,-0.457287162542,-0.492190241814,0.0165845677257,0.0161544923183,-0.0055218530039,-0.0146504138067,0.999746921422
1624516342893380546,0,1624516342893052917,world,cf10,-0.513338029385,0.495323896408,0.013774394989,0.00162865977329,0.00601761645215,0.0707171108519,0.997476930055
1624516342893401219,0,1624516342893071634,world,cf11,0.51948171854,-0.466124325991,0.0185085665435,0.00478729800141,-0.0103854836813,-0.0680500280595,0.997616367742
1624516342893419657,0,1624516342893076872,world,cf12,0.508532822132,0.512043595314,0.0167632158846,0.00675572351648,0.0130103200582,0.0254537161341,0.99956850696
1624516342893444381,0,1624516342893081552,world,cf7,-0.457289844751,-0.492023140192,0.0165825560689,0.01673361678,-0.00580510177704,-0.0140572648225,0.999744307395
1624516342903659971,0,1624516342903323681,world,cf10,-0.513320147991,0.495337873697,0.0137796876952,0.0018374718611,0.00606274515564,0.0705530871517,0.997487909055
1624516342903702295,0,1624516342903341351,world,cf11,0.519373357296,-0.466036260128,0.0185238644481,0.00576247650362,-0.0100217629738,-0.0690571222273,0.997545724266
1624516342903731349,0,1624516342903346659,world,cf12,0.508530318737,0.512040913105,0.0167501047254,0.00716058242248,0.0129437099163,0.0254989484315,0.999565400593
1624516342903744479,0,1624516342903351338,world,cf7,-0.457317024469,-0.491997331381,0.0165881384164,0.0159760992128,-0.00494123899556,-0.0138569305849,0.999764139128
1624516342913384989,0,1624516342913097100,world,cf10,-0.513329446316,0.495324373245,0.0137918675318,0.00167879827084,0.00575200202455,0.0707653628569,0.997474991932
1624516342913401681,0,1624516342913114281,world,cf11,0.519395112991,-0.466267704964,0.0184881370515,0.00465840716246,-0.0093414180052,-0.0671894117199,0.997685631903
1624516342913421447,0,1624516342913119380,world,cf12,0.508526623249,0.512042582035,0.0167578682303,0.00695249635483,0.0124574715368,0.0258093741124,0.999565080625
1624516342913447218,0,1624516342913124129,world,cf7,-0.457287102938,-0.491997033358,0.0165932942182,0.0168264095538,-0.00570808946468,-0.0140899678103,0.999742848168
1624516342923436659,0,1624516342923113360,world,cf10,-0.513357877731,0.495355576277,0.0137941427529,0.002369556801,0.00570505389917,0.0704052371436,0.99749934343
1624516342923476050,0,1624516342923137246,world,cf11,0.519456505775,-0.466309130192,0.0185085292906,0.00408919907986,-0.0105477899341,-0.0672903818034,0.99766929746
1624516342923530806,0,1624516342923143951,world,cf12,0.508526742458,0.512044012547,0.0167342219502,0.00685277546959,0.0127544796523,0.0256882985081,0.999565142468
1624516342923551060,0,1624516342923150027,world,cf7,-0.457265108824,-0.491976290941,0.0165701322258,0.0170051384185,-0.00583571346258,-0.0136617899643,0.999745030101
1624516342933550139,0,1624516342933202815,world,cf10,-0.513362884521,0.495329916477,0.0138249136508,0.00180172218299,0.00569299644179,0.0703480751808,0.997504632524
1624516342933577308,0,1624516342933224046,world,cf11,0.519432723522,-0.466250479221,0.0185070261359,0.00511522872637,-0.00994056839902,-0.0679835456455,0.997623805378
1624516342933597841,0,1624516342933228796,world,cf12,0.508543908596,0.512043535709,0.0167538635433,0.00702922452105,0.0128157481012,0.0255532185414,0.999566595893
1624516342933609784,0,1624516342933233056,world,cf7,-0.457318007946,-0.492044895887,0.0166076049209,0.01696077944,-0.00573717345051,-0.0136848596889,0.99974603846
1624516342943304072,0,1624516342942966037,world,cf10,-0.513351559639,0.495285332203,0.0137977572158,0.00154930896671,0.00608379891727,0.0706394596166,0.997482157122
1624516342943331800,0,1624516342942982729,world,cf11,0.519537806511,-0.466086953878,0.0185814760625,0.00585142908873,-0.0100892570299,-0.0692828536873,0.997528873695
1624516342943343533,0,1624516342942987269,world,cf12,0.508539497852,0.512013912201,0.0167847741395,0.00688356470568,0.0126293699021,0.0256716081302,0.999566948278
1624516342943360854,0,1624516342942991599,world,cf7,-0.457332193851,-0.492022275925,0.0166588239372,0.0166320205733,-0.00581509716574,-0.0142574394978,0.999743109982
1624516342953718851,0,1624516342953406657,world,cf10,-0.51334553957,0.495285660028,0.0137918666005,0.0015831094811,0.00580153796052,0.0703578287872,0.997503690144
1624516342953741480,0,1624516342953430543,world,cf11,0.519411444664,-0.466132253408,0.018566025421,0.00480445480125,-0.0102910344787,-0.070019886734,0.997480940813
1624516342953751817,0,1624516342953437178,world,cf12,0.508506298065,0.5120049119,0.016762143001,0.0068660706146,0.0128680834058,0.0254363945564,0.999570037234
1624516342953763410,0,1624516342953443184,world,cf7,-0.45732486248,-0.491990864277,0.0166200678796,0.0159810413233,-0.005256009429,-0.0141766512841,0.999757972332
1624516342963314173,0,1624516342962995833,world,cf10,-0.513337910175,0.495383232832,0.0137773724273,0.0023819313611,0.00634047174622,0.0711909180702,0.997439711464
1624516342963346510,0,1624516342963015039,world,cf11,0.519441485405,-0.466329246759,0.0185244325548,0.00463325114883,-0.00942686952703,-0.0675140550146,0.997663029028
1624516342963366485,0,1624516342963020347,world,cf12,0.508528053761,0.512051999569,0.0167810525745,0.00707036381704,0.0125293263408,0.0255044209094,0.999571183284
1624516342963398542,0,1624516342963025865,world,cf7,-0.457285702229,-0.491979330778,0.0165954045951,0.0174225069889,-0.00622437862183,-0.0135919501425,0.999736451397
1624516342973354528,0,1624516342973068665,world,cf10,-0.513350188732,0.495346993208,0.0138050848618,0.00225594082873,0.00605133320613,0.0705873972125,0.99748469234
1624516342973373316,0,1624516342973086963,world,cf11,0.519417345524,-0.466178864241,0.0185740962625,0.00328714308508,-0.0111550512169,-0.0688990207854,0.997555855307
1624516342973390148,0,1624516342973092830,world,cf12,0.50851392746,0.512033998966,0.0167951472104,0.00699436940116,0.0127466813889,0.0255828051347,0.999566966737
1624516342973422904,0,1624516342973097719,world,cf7,-0.457311183214,-0.492068052292,0.0166361536831,0.0165670295043,-0.00585668596351,-0.0145621350224,0.999739554577
1624516342983441119,0,1624516342983131300,world,cf10,-0.513345777988,0.495328217745,0.0138003062457,0.00174748259825,0.00602218703796,0.070075080824,0.997522011093
1624516342983469056,0,1624516342983158818,world,cf11,0.519460976124,-0.466330945492,0.0185636430979,0.00555653583692,-0.00977244867709,-0.0682058251231,0.997607933797
1624516342983503558,0,1624516342983178024,world,cf12,0.508538901806,0.512037336826,0.0167852044106,0.00664928807917,0.0126281151545,0.0256041612572,0.999570279971
1624516342983515082,0,1624516342983192202,world,cf7,-0.457291156054,-0.492029994726,0.0166441630572,0.0172623036875,-0.00652051325092,-0.0140355895749,0.999731212879
1624516342993460802,0,1624516342993136385,world,cf10,-0.513348579407,0.495359808207,0.0137434219941,0.00212011434618,0.00674117899092,0.0705447030954,0.997483587076
1624516342993490973,0,1624516342993157827,world,cf11,0.519404351711,-0.466332554817,0.0185255501419,0.0037167509883,-0.00977108624016,-0.0672413182802,0.997681971748
1624516342993503754,0,1624516342993164462,world,cf12,0.50854241848,0.512083351612,0.0168105624616,0.00688901638757,0.0126046585286,0.0254435074326,0.999573054842
1624516342993535882,0,1624516342993170538,world,cf7,-0.45728328824,-0.49200463295,0.0166051629931,0.0169471182258,-0.00584611843731,-0.0135486141857,0.999747494689
1624516343003417067,0,1624516343003137839,world,cf10,-0.513371288776,0.495322495699,0.0137866921723,0.00191351627213,0.00612424439501,0.0700709207478,0.997521377291
1624516343003444445,0,1624516343003162004,world,cf11,0.519440472126,-0.466211438179,0.0185303874314,0.00572582558387,-0.00895937332272,-0.067668451828,0.997651204168
1624516343003497036,0,1624516343003171363,world,cf12,0.508532583714,0.512005329132,0.0167499147356,0.00672126871182,0.0128610289353,0.0254501172732,0.999570762884
1624516343003517640,0,1624516343003180582,world,cf7,-0.457291007042,-0.492089629173,0.0165926162153,0.0168783343655,-0.00626654115007,-0.0142261205259,0.99973670023
1624516343014057366,0,1624516343013701102,world,cf10,-0.513318419456,0.495340883732,0.0138059258461,0.00166983260704,0.0061768600175,0.0704125979323,0.997497430629
1624516343014083696,0,1624516343013720867,world,cf11,0.519459307194,-0.4661847651,0.0185198113322,0.0049505630367,-0.0109803631792,-0.0689913641498,0.997544542977
1624516343014106186,0,1624516343013726035,world,cf12,0.508519053459,0.512034416199,0.0167633853853,0.00665480488074,0.0127558993884,0.0253681776634,0.999574637616
1624516343014117570,0,1624516343013730715,world,cf7,-0.457291722298,-0.492053121328,0.0166219044477,0.0159783813627,-0.00481856950116,-0.0143304991657,0.999758025479
1624516343023293630,0,1624516343022948051,world,cf10,-0.513339519501,0.495325744152,0.0138261280954,0.00157654096279,0.00583187573153,0.0704763593283,0.997495156139
1624516343023313605,0,1624516343022965651,world,cf11,0.519416511059,-0.466217577457,0.0185953378677,0.00328354924131,-0.0110115545521,-0.0685629005959,0.997580619616
1624516343023357116,0,1624516343022970820,world,cf12,0.508525848389,0.512060642242,0.0167691260576,0.00696983860872,0.0127639401743,0.0255305681457,0.999568253433
1624516343023390710,0,1624516343022975988,world,cf7,-0.457294464111,-0.492061465979,0.016664929688,0.0176215076569,-0.00674923268438,-0.0142717471498,0.999720084603
1624516343033444825,0,1624516343033136821,world,cf10,-0.513351142406,0.495330870152,0.0138063766062,0.00147554006332,0.00566777896436,0.07003344392,0.997527451149
1624516343033471504,0,1624516343033157494,world,cf11,0.51944231987,-0.466126322746,0.018584260717,0.00519647276982,-0.0109742473041,-0.069708073526,0.997493532336
1624516343033510267,0,1624516343033162942,world,cf12,0.508510053158,0.512025594711,0.016771081835,0.00697851982194,0.0125881174437,0.025620621048,0.999568118408
1624516343033540089,0,1624516343033167761,world,cf7,-0.457293182611,-0.492160618305,0.0166158322245,0.0153243905078,-0.00539679499853,-0.0151374964187,0.999753416529
1624516343043451516,0,1624516343043096230,world,cf10,-0.513342380524,0.495371222496,0.0138404062018,0.00184191849914,0.00585892300264,0.0702667851534,0.997509327907
1624516343043479453,0,1624516343043110408,world,cf11,0.519435763359,-0.466270655394,0.0185421574861,0.00443017486415,-0.0103985863665,-0.0684330171037,0.997591682565
1624516343043500336,0,1624516343043124586,world,cf12,0.508500158787,0.512043118477,0.0167813487351,0.00708238186567,0.0129719211019,0.0254698958632,0.999566332734
1624516343043522615,0,1624516343043129195,world,cf7,-0.457297384739,-0.492060542107,0.0166413281113,0.0165810491345,-0.00591875797056,-0.0144284208762,0.999740895325
1624516343053500602,0,1624516343053184078,world,cf10,-0.513391554356,0.495324999094,0.0137834977359,0.0017751745553,0.00597137690923,0.0699742078538,0.997529348765
1624516343053535942,0,1624516343053208103,world,cf11,0.519278109074,-0.466148883104,0.0186143163592,0.00423935102815,-0.0087874867129,-0.0667365939238,0.99772292497
1624516343053557384,0,1624516343053216904,world,cf12,0.508498609066,0.51207703352,0.0168113317341,0.00723766255868,0.0126038705886,0.0255717113524,0.999567329531
1624516343053568698,0,1624516343053226472,world,cf7,-0.457286417484,-0.492082536221,0.0166337378323,0.0168058294851,-0.00577796157613,-0.0144523056265,0.999737620637
1624516343063639644,0,1624516343063304961,world,cf10,-0.513357162476,0.495301067829,0.0138023458421,0.0016619348142,0.00601200960423,0.0704611855148,0.997495020062
1624516343063752300,0,1624516343063329895,world,cf11,0.519447565079,-0.466282755136,0.0185398608446,0.00454079632773,-0.0105467958753,-0.0689117675258,0.997556672356
1624516343063781843,0,1624516343063339044,world,cf12,0.508515417576,0.512027919292,0.0167469121516,0.00710596816823,0.0130302546616,0.0253743816108,0.999567835836
1624516343063801957,0,1624516343063347774,world,cf7,-0.457288116217,-0.492118656635,0.0166200678796,0.016318325368,-0.00540306432865,-0.0145191358367,0.999746824875
1624516343073390924,0,1624516343073120495,world,cf10,-0.513322532177,0.495335996151,0.0138403791934,0.0020976269648,0.00624382603776,0.0706460269108,0.997479700786
1624516343073432130,0,1624516343073143543,world,cf11,0.519445359707,-0.466215968132,0.0185274612159,0.00493716869165,-0.0100989668011,-0.0671955870677,0.997676494819
1624516343073468169,0,1624516343073149619,world,cf12,0.508511781693,0.511983036995,0.0167453978211,0.00724994671655,0.0130419600945,0.0256233532355,0.99956029799
1624516343073480601,0,1624516343073155137,world,cf7,-0.457282781601,-0.492050856352,0.0166250541806,0.0176864698168,-0.00604395859264,-0.013770006859,0.999730486812
1624516343083475140,0,1624516343083197518,world,cf10,-0.51335221529,0.495269834995,0.0138046583161,0.00134641500021,0.00589472649862,0.0704024719055,0.997500341512
1624516343083503845,0,1624516343083220496,world,cf11,0.519446015358,-0.466079801321,0.0185347720981,0.00532417756717,-0.0108205250174,-0.0694371179911,0.997513436509
1624516343083525286,0,1624516343083226642,world,cf12,0.508504331112,0.511964559555,0.016774341464,0.00704421319185,0.0128696222542,0.0256549020754,0.999563193542
1624516343083543026,0,1624516343083232439,world,cf7,-0.457277238369,-0.492220968008,0.016638873145,0.0165996887298,-0.00619333239306,-0.0149269635315,0.999731603345
1624516343093466466,0,1624516343093204908,world,cf10,-0.513363540173,0.495341926813,0.0137589592487,0.00195180877206,0.00619628594835,0.0701304735606,0.997516673124
1624516343093508371,0,1624516343093229422,world,cf11,0.519413411617,-0.466273665428,0.018514174968,0.00384185302265,-0.0114051215961,-0.0680045489136,0.997612422083
1624516343093537705,0,1624516343093235568,world,cf12,0.508498847485,0.512053906918,0.0167668350041,0.00710126902606,0.0129525234024,0.0254444276945,0.999567098906
1624516343093559286,0,1624516343093240946,world,cf7,-0.457321733236,-0.492074042559,0.0166345480829,0.0163758842143,-0.00560536415009,-0.0145443722697,0.999744403107
1624516343103370071,0,1624516343103049286,world,cf10,-0.513372063637,0.495354712009,0.0137625075877,0.00202303850127,0.00649118065987,0.0704590322027,0.997491502054
1624516343103392909,0,1624516343103074220,world,cf11,0.519453585148,-0.466269373894,0.0185221303254,0.004818271309,-0.0102386510355,-0.067136413361,0.997679636099
1624516343103439773,0,1624516343103080785,world,cf12,0.508527636528,0.512088656425,0.0168114192784,0.00718137246527,0.0127827263866,0.0256618725989,0.999563153628
1624516343103463380,0,1624516343103086861,world,cf7,-0.457285344601,-0.492178469896,0.0166226420552,0.0161755230822,-0.00559682574293,-0.0148751490618,0.999742845903
1624516343113323822,0,1624516343113071972,world,cf10,-0.513379096985,0.495363503695,0.013776903972,0.00178704874921,0.00641756545841,0.0700401583273,0.997521928346
1624516343113367264,0,1624516343113096486,world,cf11,0.51935762167,-0.466091036797,0.0185599122196,0.00520644747708,-0.0099299278385,-0.0679740969398,0.997624083301
1624516343113390312,0,1624516343113102982,world,cf12,0.508506000042,0.512047171593,0.0168048515916,0.00671041836333,0.013175744295,0.0253313700166,0.999569753314
1624516343113412941,0,1624516343113108709,world,cf7,-0.457265555859,-0.492134124041,0.0166736077517,0.0162762455094,-0.00613863936341,-0.0153146447318,0.999731395224
1624516343123487728,0,1624516343123172880,world,cf10,-0.513331353664,0.495341092348,0.0138267623261,0.00174246227655,0.00654850340705,0.071024648772,0.99745154278
1624516343123507843,0,1624516343123198023,world,cf11,0.519393742085,-0.466128230095,0.0185136515647,0.00513207394614,-0.00960703463049,-0.0681683935233,0.997614372805
1624516343123518668,0,1624516343123204449,world,cf12,0.508529543877,0.512050509453,0.0167832318693,0.006837751405,0.0127602799881,0.0255590366379,0.999568484926
1624516343123551354,0,1624516343123210176,world,cf7,-0.45728328824,-0.492035418749,0.0166227407753,0.0162068679897,-0.00568969966731,-0.0145608093561,0.999746441643
1624516343133398108,0,1624516343133104561,world,cf10,-0.513345003128,0.495333403349,0.0138238873333,0.00162327827905,0.00580114136261,0.0708735522992,0.99746711791
1624516343133416616,0,1624516343133121743,world,cf11,0.519431054592,-0.466091364622,0.0185105241835,0.00570147153268,-0.00992489317501,-0.0692311444391,0.997534981019
1624516343133435334,0,1624516343133126911,world,cf12,0.508500695229,0.512039422989,0.0167620368302,0.00707554947969,0.0128847247226,0.0256196667001,0.999563681386
1624516343133456566,0,1624516343133131660,world,cf7,-0.457296609879,-0.492031514645,0.0166419725865,0.0167238152569,-0.00582916565658,-0.014428317465,0.999739045194
1624516343143474502,0,1624516343143157000,world,cf10,-0.513368666172,0.495333224535,0.0137975029647,0.00159197974216,0.00601483688918,0.0699710913135,0.997529615459
1624516343143509912,0,1624516343143182562,world,cf11,0.519393861294,-0.466222465038,0.0185483079404,0.00486787923835,-0.00880953675009,-0.0674770031582,0.997670060621
1624516343143556287,0,1624516343143189406,world,cf12,0.508531868458,0.512074351311,0.0168042574078,0.00673913378664,0.0126436777718,0.0257862985609,0.999564799448
1624516343143576820,0,1624516343143195692,world,cf7,-0.45726776123,-0.492113828659,0.016644096002,0.016565814515,-0.00663388749332,-0.0150864346911,0.999726945128
1624516343153371541,0,1624516343153092941,world,cf10,-0.513345479965,0.495340168476,0.0138459512964,0.00174059309622,0.00572642072795,0.0704354636652,0.997498382906
1624516343153396545,0,1624516343153115640,world,cf11,0.519321978092,-0.466116547585,0.0185700450093,0.0042093544655,-0.0102879301248,-0.068160197749,0.99761246347
1624516343153408977,0,1624516343153122554,world,cf12,0.508511722088,0.512062311172,0.0167847536504,0.00687448184884,0.0125417563388,0.0258052783772,0.999564671972
1624516343153440545,0,1624516343153128770,world,cf7,-0.457307785749,-0.49209356308,0.0166496280581,0.0164232604396,-0.00556295073724,-0.0147360522853,0.999741055903
1624516343163363356,0,1624516343163100680,world,cf10,-0.513328611851,0.495300620794,0.0137791670859,0.00163227026414,0.00640806919383,0.0704705481881,0.997491941913
1624516343163385147,0,1624516343163125614,world,cf11,0.519453585148,-0.466081380844,0.0184846837074,0.0057065062841,-0.01049882354,-0.0680267509041,0.997611934397
1624516343163395065,0,1624516343163132040,world,cf12,0.508520960808,0.512027859688,0.016781181097,0.00704430196323,0.0127612839001,0.0258529023355,0.999559480413
1624516343163420906,0,1624516343163138325,world,cf7,-0.457279413939,-0.492206901312,0.0166486483067,0.016340001952,-0.00602545665172,-0.0150680779843,0.999734790449
1624516343173546120,0,1624516343173215348,world,cf10,-0.513344764709,0.495422363281,0.0137983821332,0.00245349484416,0.00655211515522,0.0703114725976,0.99750054986
1624516343173574685,0,1624516343173239723,world,cf11,0.519410848618,-0.466193199158,0.0184979829937,0.00487900760987,-0.00892306962559,-0.0667666126182,0.997716790253
1624516343173601575,0,1624516343173246288,world,cf12,0.508532524109,0.512063801289,0.0167956463993,0.006894048291,0.0126406019327,0.0257620382592,0.999564407462
1624516343173637334,0,1624516343173252155,world,cf7,-0.457286387682,-0.492067635059,0.0166335105896,0.0160998103645,-0.00574025596467,-0.0149740714249,0.999741778037
1624516343183270161,0,1624516343183004621,world,cf10,-0.513346791267,0.495352178812,0.0137604577467,0.00213298363739,0.00655042284494,0.070349342856,0.997498627719
1624516343183286853,0,1624516343183029345,world,cf11,0.519404411316,-0.466146320105,0.0184693019837,0.00533574085931,-0.00929819346756,-0.0675846129225,0.997655949496
1624516343183294047,0,1624516343183035771,world,cf12,0.508570075035,0.512039959431,0.0167840402573,0.00687220749104,0.0125861197661,0.0258561898024,0.999562814336
1624516343183308364,0,1624516343183041917,world,cf7,-0.457266062498,-0.492064714432,0.0166109967977,0.017347488696,-0.00627274909594,-0.014167514747,0.999729462795
1624516343193536106,0,1624516343193303183,world,cf10,-0.51336312294,0.49534112215,0.0138100981712,0.00165607773154,0.00569034895754,0.0702725668301,0.997510222347
1624516343193570818,0,1624516343193329862,world,cf11,0.519456684589,-0.466017603874,0.0185325462371,0.00510702294433,-0.00932228215035,-0.0690445320468,0.997556948734
1624516343193602875,0,1624516343193336428,world,cf12,0.508547782898,0.512076318264,0.016809284687,0.00686300793056,0.0124222368727,0.0260589686993,0.999559661703
1624516343193616913,0,1624516343193343621,world,cf7,-0.457274347544,-0.492121458054,0.0166211556643,0.0161728559411,-0.00597272993995,-0.0149073990529,0.999740233601
1624516343203487413,0,1624516343203141904,world,cf10,-0.513357043266,0.495339423418,0.0138070238754,0.00159150339049,0.00604707376375,0.0702336208433,0.997510971628
1624516343203516258,0,1624516343203166768,world,cf11,0.519478499889,-0.466108649969,0.0185707509518,0.00445798836321,-0.00885838560038,-0.067683600688,0.997657549233
1624516343203528201,0,1624516343203173333,world,cf12,0.508512318134,0.512104451656,0.0168198291212,0.00710459214315,0.0126248313138,0.0258199766496,0.999561637524
1624516343203550969,0,1624516343203179270,world,cf7,-0.457245260477,-0.49206623435,0.0166329182684,0.0163176194953,-0.0060487167843,-0.0148602151068,0.999738126874
1624516343213398700,0,1624516343213095656,world,cf10,-0.513329565525,0.49535998702,0.0138338236138,0.00189788536853,0.00614353415776,0.0706623278858,0.997479568932
1624516343213434110,0,1624516343213114164,world,cf11,0.519536674023,-0.466190814972,0.0185910351574,0.00401086028501,-0.0108785422821,-0.068746200708,0.997566804884
1624516343213456320,0,1624516343213119472,world,cf12,0.508522152901,0.512071073055,0.016795264557,0.00689509219144,0.0125158762162,0.0259933839514,0.99955998046
1624516343213486352,0,1624516343213124151,world,cf7,-0.457232654095,-0.492125064135,0.0166159085929,0.0164228325757,-0.00621767349323,-0.0148442026092,0.999735605425
1624516343223376687,0,1624516343223093198,world,cf10,-0.513335287571,0.49537858367,0.0138347968459,0.0014536007153,0.00566738101916,0.0700317475996,0.997527604714
1624516343223404624,0,1624516343223117782,world,cf11,0.519462883472,-0.466256827116,0.0185365304351,0.00428578687861,-0.00992748632906,-0.067869203077,0.997635629035
1624516343223422503,0,1624516343223126443,world,cf12,0.508499979973,0.512065470219,0.0167977437377,0.00675760209357,0.0120788942986,0.0260818246674,0.999563991723
1624516343223468250,0,1624516343223134614,world,cf7,-0.457254111767,-0.492102384567,0.0166491288692,0.0164900681347,-0.00619918893897,-0.0149430556708,0.999733140791
1624516343233420115,0,1624516343233140188,world,cf10,-0.513352453709,0.495304197073,0.0138065544888,0.001594864434,0.0064203637523,0.070340708777,0.997501087731
1624516343233446236,0,1624516343233153738,world,cf11,0.519445359707,-0.466058284044,0.0185266658664,0.00522318526672,-0.00957655809341,-0.0677684691553,0.997641439827
1624516343233464744,0,1624516343233158766,world,cf12,0.508511781693,0.512020468712,0.0167713593692,0.00696914893987,0.0126520761782,0.0258459921191,0.999561574203
1624516343233508326,0,1624516343233163446,world,cf7,-0.457258403301,-0.492056190968,0.0166592337191,0.0164278424226,-0.00603218405667,-0.0147369043343,0.999738246942
1624516343243647578,0,1624516343243327841,world,cf10,-0.513354957104,0.495301961899,0.0137862404808,0.00176698351339,0.00637148685023,0.0705161458141,0.997488724299
1624516343243672372,0,1624516343243349841,world,cf11,0.519454538822,-0.466136097908,0.0185392331332,0.00483215195075,-0.0100475496713,-0.0680091549673,0.997622399455
1624516343243695000,0,1624516343243355568,world,cf12,0.508524179459,0.512045323849,0.0167999956757,0.00700247100592,0.0129014868125,0.025593645838,0.999564646399
1624516343243714277,0,1624516343243360876,world,cf7,-0.457255482674,-0.492123752832,0.0166231170297,0.0165532530613,-0.00610340577536,-0.0144857914357,0.999739416097
1624516343253509068,0,1624516343253236265,world,cf10,-0.513338565826,0.49529799819,0.0137758208439,0.00201753017934,0.00624993034416,0.0703324761344,0.997501985333
1624516343253536935,0,1624516343253258754,world,cf11,0.519440531731,-0.466177433729,0.0185617860407,0.00528754246719,-0.00925105063999,-0.0674243196037,0.99766749024
1624516343253554814,0,1624516343253264551,world,cf12,0.508524894714,0.512016415596,0.0167814735323,0.00688280707204,0.0126498757571,0.0256175783735,0.999568080367
1624516343253578141,0,1624516343253269789,world,cf7,-0.45726275444,-0.492163389921,0.0166241247207,0.0166320281383,-0.00664212144154,-0.0150916541077,0.999725712303
1624516343263279134,0,1624516343262956604,world,cf10,-0.513343453407,0.495324343443,0.0137989167124,0.00163094359269,0.0058421752448,0.0704252783549,0.997498616129
1624516343263312030,0,1624516343262981328,world,cf11,0.519411325455,-0.466320335865,0.0185515843332,0.00405716888879,-0.00948878547152,-0.0674846979957,0.997666937343
1624516343263352888,0,1624516343262987753,world,cf12,0.5085324049,0.512045502663,0.0167914628983,0.00709097585011,0.0130811731432,0.0255346237081,0.999563196583
1624516343263363504,0,1624516343262994179,world,cf7,-0.457241952419,-0.492158770561,0.016601216048,0.0173423499731,-0.00652332807452,-0.0143567243663,0.999725249033
1624516343273508273,0,1624516343273191679,world,cf10,-0.513335347176,0.495329558849,0.0137939816341,0.00152675477139,0.005801070781,0.0701639334127,0.997517437966
1624516343273537676,0,1624516343273214168,world,cf11,0.51941293478,-0.46622505784,0.0185186117887,0.00489226297367,-0.00864063926818,-0.0675556568325,0.997666095618
1624516343273573785,0,1624516343273220035,world,cf12,0.5085298419,0.512023508549,0.0167840197682,0.00697918665425,0.0130659157434,0.0252317454583,0.999571874264
1624516343273608846,0,1624516343273225273,world,cf7,-0.457303225994,-0.492167055607,0.016613945365,0.0157433466171,-0.00526169166334,-0.0151224124468,0.999747855351
1624516343283723862,0,1624516343283415649,world,cf10,-0.513367116451,0.495359450579,0.0137945702299,0.00186869194677,0.00592315740854,0.0698157531306,0.997540568003
1624516343283746142,0,1624516343283439814,world,cf11,0.519467175007,-0.466030180454,0.0185808632523,0.00541140475801,-0.00908150914445,-0.0684124617439,0.997601111652
1624516343283755431,0,1624516343283446380,world,cf12,0.508531689644,0.512032389641,0.0167606957257,0.00657224658288,0.0128489072117,0.0255476833609,0.999569420817
1624516343283791120,0,1624516343283452735,world,cf7,-0.457274138927,-0.492108672857,0.0165697168559,0.0159585455663,-0.00511303445683,-0.0143233852859,0.999756981639
1624516343293646324,0,1624516343293328822,world,cf10,-0.513347685337,0.495356082916,0.0137442331761,0.00205759070378,0.00663668273355,0.0707516950739,0.997469758142
1624516343293670140,0,1624516343293353756,world,cf11,0.519449412823,-0.466309070587,0.0185733549297,0.00409650751406,-0.00985884655274,-0.0679614759733,0.997630823278
1624516343293704642,0,1624516343293360391,world,cf12,0.508565485477,0.512089014053,0.01679177396,0.00714297561075,0.012939719755,0.025764534791,0.999558767807
1624516343293724897,0,1624516343293366397,world,cf7,-0.457316726446,-0.492026925087,0.0166156366467,0.0167569904328,-0.00554779714459,-0.0141191226944,0.999744505158
1624516343303518221,0,1624516343303218319,world,cf10,-0.513354718685,0.495389103889,0.0138223692775,0.00169841693966,0.00565570702359,0.0702489485779,0.997512011748
1624516343303557332,0,1624516343303239621,world,cf11,0.519473135471,-0.46620157361,0.0185487810522,0.00446029697319,-0.00980053636889,-0.0685951249474,0.997586469471
1624516343303587923,0,1624516343303246256,world,cf12,0.508518099785,0.512101054192,0.0168025940657,0.0069023591294,0.0125693328032,0.0257057218589,0.999566698713
1624516343303607619,0,1624516343303252262,world,cf7,-0.457291483879,-0.492092400789,0.0166184920818,0.0164235251975,-0.00596011845812,-0.014825784519,0.999737435991
1624516343313316713,0,1624516343313052989,world,cf10,-0.513380467892,0.495360553265,0.0138214835897,0.00157753294521,0.00587464209124,0.0702174668916,0.997513161474
1624516343313341786,0,1624516343313078133,world,cf11,0.519445180893,-0.466283202171,0.0185346901417,0.00441656576332,-0.0100251610617,-0.0670519901028,0.997689340785
1624516343313355615,0,1624516343313084837,world,cf12,0.508483469486,0.512070417404,0.016759833321,0.00690135303819,0.0130848398517,0.0254208442094,0.999567375904
1624516343313365253,0,1624516343313090564,world,cf7,-0.457280576229,-0.4921451509,0.0166288036853,0.0155262503158,-0.00590837851828,-0.0154757968457,0.999742229941
1624516343323474264,0,1624516343323158857,world,cf10,-0.513360917568,0.495373308659,0.0137961879373,0.00213793152563,0.00635218479471,0.0702260954918,0.997508583677
1624516343323510162,0,1624516343323182952,world,cf11,0.519452631474,-0.466016054153,0.018591562286,0.00481533857084,-0.0100795699591,-0.0679843936803,0.997623845445
1624516343323521826,0,1624516343323189797,world,cf12,0.508521735668,0.512068867683,0.0167979449034,0.00705289277628,0.0126518466674,0.0256742218815,0.999565416474
1624516343323559331,0,1624516343323195943,world,cf7,-0.457290381193,-0.492037832737,0.0166266299784,0.0160391831917,-0.00569089076911,-0.0147778623087,0.999745954306
1624516343333491362,0,1624516343333202914,world,cf10,-0.513333261013,0.495373904705,0.013773214072,0.00240903027325,0.00648347908686,0.0707499326695,0.997470103862
1624516343333536619,0,1624516343333227079,world,cf11,0.519365787506,-0.465994149446,0.0185707639903,0.00331814922119,-0.0118534028034,-0.0687865335608,0.997555461881
1624516343333569236,0,1624516343333233575,world,cf12,0.508489787579,0.512036085129,0.0167653765529,0.00687095394075,0.0129904339287,0.0254926443416,0.999566988102
1624516343333589071,0,1624516343333239441,world,cf7,-0.457268059254,-0.492143154144,0.0165759827942,0.0156791785608,-0.00524087942084,-0.0148306803761,0.999753343311
1624516343343335810,0,1624516343343091922,world,cf10,-0.513335108757,0.495299041271,0.0137716634199,0.0013533277397,0.00612076499261,0.0704244510036,0.997497419265
1624516343343356693,0,1624516343343116925,world,cf11,0.519449651241,-0.466248691082,0.0185984503478,0.00495284232696,-0.00846992425766,-0.0675620579853,0.997666827181
1624516343343389589,0,1624516343343123420,world,cf12,0.50853061676,0.512094676495,0.0168101452291,0.00723200879157,0.0132990997774,0.0254712284864,0.999560927865
1624516343343440434,0,1624516343343131033,world,cf7,-0.457259118557,-0.492107927799,0.016569038853,0.0160493836413,-0.00590384860625,-0.0148819456168,0.999743011754
1624516343353526466,0,1624516343353235224,world,cf10,-0.51330280304,0.495348751545,0.0138029772788,0.00134910204275,0.00618790385774,0.070625403893,0.997482802907
1624516343353565507,0,1624516343353257644,world,cf11,0.519376933575,-0.466156721115,0.0184976253659,0.00470251042727,-0.0100963453439,-0.0675848217455,0.99765136299
1624516343353579336,0,1624516343353263371,world,cf12,0.508508086205,0.512033820152,0.0167656075209,0.00700437238361,0.0132089994375,0.0255428350425,0.999561916381
1624516343353596168,0,1624516343353269098,world,cf7,-0.457271337509,-0.492068111897,0.0165784750134,0.0159904531725,-0.00542505655511,-0.0144366708784,0.999753197896
1624516343363474769,0,1624516343363127515,world,cf10,-0.513343453407,0.495372742414,0.0137787796557,0.0017501662777,0.00580866396241,0.0703127377196,0.997506548979
1624516343363500751,0,1624516343363151540,world,cf11,0.519359886646,-0.465997308493,0.0184988081455,0.00552549448463,-0.0087871179376,-0.0674522149587,0.997668509158
1624516343363541189,0,1624516343363158036,world,cf12,0.508529245853,0.512045919895,0.0167923923582,0.00693371792899,0.0126155669651,0.0258147509418,0.999563089384
1624516343363555297,0,1624516343363163972,world,cf7,-0.457314580679,-0.492100149393,0.0165696386248,0.0156502797046,-0.00486150473497,-0.0145576157465,0.999759726305
1624516343373755242,0,1624516343373412178,world,cf10,-0.513360142708,0.495385289192,0.0137919969857,0.00194326774767,0.00605549611197,0.0703493946312,0.997502139021
1624516343373784156,0,1624516343373435854,world,cf11,0.519396722317,-0.466264873743,0.018509240821,0.00527118653178,-0.00926513587756,-0.0669760324562,0.997697641035
1624516343373804690,0,1624516343373442419,world,cf12,0.508540272713,0.51206445694,0.0168028082699,0.00718352280783,0.0126320354578,0.0257315929782,0.999563261531
1624516343373823687,0,1624516343373448356,world,cf7,-0.457238793373,-0.492073923349,0.0165985226631,0.0173946263194,-0.00628009012426,-0.0142087199074,0.999728012872
1624516343383440870,0,1624516343383129304,world,cf10,-0.513359844685,0.495313942432,0.0138034056872,0.00207882419136,0.00618209358077,0.0706305944236,0.997481217538
1624516343383481727,0,1624516343383154657,world,cf11,0.519400835037,-0.466030061245,0.0185059402138,0.0047630352403,-0.010675346785,-0.0691563357878,0.997537343505
1624516343383502121,0,1624516343383161152,world,cf12,0.508524179459,0.512073278427,0.0168025679886,0.00692335843731,0.0123858154098,0.0258060470803,0.999566259244
1624516343383517556,0,1624516343383167158,world,cf7,-0.45728763938,-0.492106765509,0.0165775027126,0.0156137632082,-0.00479543336952,-0.0147617660549,0.999757622867
1624516343393491631,0,1624516343393154853,world,cf10,-0.51331281662,0.495385736227,0.0137804755941,0.00237462876419,0.00662008665316,0.0709311357899,0.997456419883
1624516343393516984,0,1624516343393179228,world,cf11,0.519375085831,-0.465982705355,0.0185864381492,0.00561443484878,-0.0106216073305,-0.0686132015534,0.997570994041
1624516343393530953,0,1624516343393185863,world,cf12,0.508537113667,0.512020885944,0.0167906247079,0.00675501357792,0.0125366097187,0.0260143544397,0.999560131544
1624516343393568458,0,1624516343393191799,world,cf7,-0.457269012928,-0.49210396409,0.0165731552988,0.0156309992084,-0.0050916051213,-0.0146397404618,0.999757683351
1624516343403895794,0,1624516343403614750,world,cf10,-0.513317167759,0.495317310095,0.0137795293704,0.00161577563183,0.00647440738639,0.0702991038195,0.997503637748
1624516343403940912,0,1624516343403638706,world,cf11,0.519378721714,-0.466071724892,0.0186083707958,0.00259611960166,-0.0139036827842,-0.068781866301,0.99753145446
1624516343403961655,0,1624516343403646947,world,cf12,0.508502662182,0.512083232403,0.0168035011739,0.00723971398134,0.0126604441013,0.0256050719802,0.999565745704
1624516343403995529,0,1624516343403662661,world,cf7,-0.457249730825,-0.492073684931,0.0165757294744,0.016317961779,-0.0055611310668,-0.0142161259789,0.999750318683
1624516343413394036,0,1624516343413122071,world,cf10,-0.51335722208,0.495387643576,0.0138230547309,0.00179809004153,0.00598238030122,0.0700945251211,0.997520794543
1624516343413414499,0,1624516343413146236,world,cf11,0.519441246986,-0.466139286757,0.0185417532921,0.0044872965835,-0.0110368365843,-0.0685031416647,0.997579757207
1624516343413460036,0,1624516343413152382,world,cf12,0.508534610271,0.512080132961,0.0168153457344,0.00683786241426,0.0127272584859,0.0259792371389,0.999558072233
1624516343413525269,0,1624516343413157830,world,cf7,-0.457259654999,-0.492115169764,0.0166140906513,0.016207311617,-0.00613257347402,-0.0150027101046,0.999737282131
1624516343423296872,0,1624516343423020717,world,cf10,-0.513317227364,0.495362043381,0.013737921603,0.00197438990688,0.006659100826,0.0709645978316,0.997454652611
1624516343423319361,0,1624516343423044533,world,cf11,0.51939201355,-0.466063648462,0.0185700394213,0.00502856492433,-0.009587915568,-0.0674738359177,0.99766230102
1624516343423352257,0,1624516343423051238,world,cf12,0.50852149725,0.512064516544,0.0167876426131,0.00694663516402,0.0126687105615,0.0260023929107,0.999557463879
1624516343423385432,0,1624516343423056895,world,cf7,-0.457277804613,-0.491974413395,0.0165522620082,0.0166761200071,-0.00607603585607,-0.0137172235175,0.999748381638
1624516343433498144,0,1624516343433202782,world,cf10,-0.513348817825,0.495359390974,0.0137756085023,0.00181785468128,0.00610705550779,0.070304370561,0.997505235454
1624516343433517420,0,1624516343433225271,world,cf11,0.519412279129,-0.466037005186,0.0185696091503,0.00519230967369,-0.0123851784902,-0.0693484626698,0.997502099246
1624516343433537395,0,1624516343433231836,world,cf12,0.508526563644,0.512068390846,0.0168064255267,0.00683355146115,0.0120721394365,0.0260742344328,0.999563755006
1624516343433549827,0,1624516343433237912,world,cf7,-0.457344442606,-0.491967260838,0.0165442693979,0.0149859501665,-0.00431185740431,-0.0138074619971,0.999783068059
1624516343443533121,0,1624516343443223931,world,cf10,-0.5133446455,0.495325505733,0.0137864528224,0.00167819147704,0.00613769237831,0.0704274998124,0.997496606348
1624516343443563503,0,1624516343443248724,world,cf11,0.519373178482,-0.466212391853,0.0184990726411,0.00561912093535,-0.00909763785352,-0.0675580594246,0.99765804115
1624516343443587528,0,1624516343443255429,world,cf12,0.508520901203,0.512031018734,0.0167937986553,0.00706801044015,0.0124706326634,0.0259523091035,0.999560405479
1624516343443613649,0,1624516343443261366,world,cf7,-0.457316935062,-0.491992950439,0.0165805313736,0.0163015634875,-0.00496160765755,-0.0138465272597,0.999758928522
1624516343453361087,0,1624516343453094570,world,cf10,-0.513317942619,0.495308041573,0.0137970540673,0.00175010126195,0.00591465379682,0.0704630705155,0.997495318139
1624516343453388326,0,1624516343453116151,world,cf11,0.519443690777,-0.466126203537,0.0185143686831,0.00548259087617,-0.010636602759,-0.068792612852,0.997559211424
1624516343453411164,0,1624516343453122018,world,cf12,0.50853574276,0.51205933094,0.0167891122401,0.00721926502783,0.012364717811,0.0258262038982,0.99956390649
1624516343453433932,0,1624516343453127256,world,cf7,-0.457317739725,-0.492024809122,0.0166031289846,0.0165704246023,-0.00551433486772,-0.0141395553445,0.999747511182
1624516343463650709,0,1624516343463372877,world,cf10,-0.5133446455,0.495341330767,0.0137902814895,0.00237731909976,0.00603064043825,0.0708512648967,0.997465827982
1624516343463676131,0,1624516343463398230,world,cf11,0.519405305386,-0.466039985418,0.0185396466404,0.00560792359593,-0.00878393666211,-0.0676771042278,0.997652847043
1624516343463733192,0,1624516343463404935,world,cf12,0.508518874645,0.511986792088,0.0167443491518,0.00664422691698,0.012800574927,0.0254235540939,0.999572729934
1624516343463743040,0,1624516343463410662,world,cf7,-0.457315504551,-0.492038875818,0.0166510883719,0.0176689400718,-0.00619386600262,-0.0137361175884,0.99973034547
1624516343473315524,0,1624516343473078410,world,cf10,-0.513292372227,0.495340257883,0.0138032976538,0.00223216465809,0.00634307753871,0.0710301116453,0.997451505612
1624516343473348768,0,1624516343473100969,world,cf11,0.519387483597,-0.466190129519,0.0185079649091,0.00445353296338,-0.00942898655988,-0.0662076190076,0.99775137757
1624516343473372445,0,1624516343473106905,world,cf12,0.508516669273,0.51199811697,0.0168019831181,0.00696940909371,0.0129402271102,0.0255292711025,0.99956602292
1624516343473411207,0,1624516343473112144,world,cf7,-0.457288533449,-0.492040991783,0.0166776999831,0.0180152745566,-0.00663290770023,-0.0139179796132,0.999718832603
1624516343483366146,0,1624516343483097463,world,cf10,-0.513336002827,0.495328187943,0.0138043081388,0.00190695464498,0.00640469916313,0.0707469791836,0.997471908521
1624516343483387029,0,1624516343483121349,world,cf11,0.519431293011,-0.4660769701,0.0185677744448,0.00405347449561,-0.0109904988361,-0.0683279499967,0.997594140685
1624516343483408610,0,1624516343483127356,world,cf12,0.508532106876,0.512025713921,0.0167937912047,0.00702093786356,0.0129062097845,0.0256296978021,0.999563532133
1624516343483421600,0,1624516343483132943,world,cf7,-0.457312077284,-0.492090672255,0.0166741348803,0.0170607439702,-0.0065767468276,-0.0144252276936,0.999728758325
1624516343493444705,0,1624516343493161076,world,cf10,-0.513356626034,0.495335549116,0.013791273348,0.00136412571981,0.00605013020182,0.0700112936359,0.997526918859
1624516343493471035,0,1624516343493184962,world,cf11,0.519401192665,-0.466001480818,0.0185159444809,0.00413183855937,-0.00930706012053,-0.0677650029657,0.997649342663
1624516343493504001,0,1624516343493191248,world,cf12,0.508529722691,0.512067317963,0.0167724601924,0.0069454908594,0.0128075192162,0.0255630594568,0.99956703507
1624516343493518179,0,1624516343493197464,world,cf7,-0.45730355382,-0.491958647966,0.0166359692812,0.0169362721585,-0.00552067991486,-0.0134471122257,0.99975089895
1624516343503328614,0,1624516343503068802,world,cf10,-0.513341188431,0.495325863361,0.0138125224039,0.00138355556729,0.00583123733203,0.0701879252731,0.997515783129
1624516343503360602,0,1624516343503091291,world,cf11,0.519425332546,-0.466138720512,0.0185406338423,0.00494247069773,-0.0101442830676,-0.0673086717984,0.99766838589
1624516343503373802,0,1624516343503097577,world,cf12,0.508546471596,0.512012720108,0.0167555976659,0.00634216564641,0.0126501945951,0.0256861057483,0.999569894246
1624516343503394894,0,1624516343503102675,world,cf7,-0.457289546728,-0.491944670677,0.0165983792394,0.0167772679781,-0.00585157248358,-0.0136663832339,0.999748724604
1624516343513488539,0,1624516343513197368,world,cf10,-0.513343632221,0.495359033346,0.0137985879555,0.0017705866739,0.00609797600536,0.0702903853746,0.997506361601
1624516343513517663,0,1624516343513222022,world,cf11,0.519537985325,-0.466251432896,0.0185338649899,0.00442624005617,-0.0106497389933,-0.0692610155017,0.997531905851
1624516343513547137,0,1624516343513229076,world,cf12,0.508536458015,0.512083590031,0.0167818628252,0.00692512500261,0.0128963549844,0.0257131694346,0.999562183953
1624516343513564318,0,1624516343513236130,world,cf7,-0.457313805819,-0.491899371147,0.0165754053742,0.0165466363331,-0.00517768956393,-0.0130856359254,0.99976405541
1624516343523599924,0,1624516343523288359,world,cf10,-0.513349890709,0.495421469212,0.0138174202293,0.00165578353718,0.00618174591289,0.0703850700549,0.997499366572
1624516343523618223,0,1624516343523310848,world,cf11,0.519408106804,-0.466071546078,0.0185665264726,0.00523147598366,-0.0107727452495,-0.0689327352263,0.99754942616
1624516343523626045,0,1624516343523316994,world,cf12,0.508537828922,0.512063086033,0.0167624279857,0.0065910177972,0.0127388378094,0.0254792849441,0.999572451868
1624516343523633029,0,1624516343523322442,world,cf7,-0.457265287638,-0.491965979338,0.0165587924421,0.0169009715201,-0.00529523333167,-0.0131978467015,0.999756037495
1624516343533391153,0,1624516343533119328,world,cf10,-0.513352811337,0.495339274406,0.0137745188549,0.00142529223996,0.00602220563325,0.0702383748379,0.997511038677
1624516343533428519,0,1624516343533142376,world,cf11,0.519433617592,-0.465890973806,0.0185397043824,0.00484982559863,-0.0111008875008,-0.0687460984995,0.997560636468
1624516343533442976,0,1624516343533149011,world,cf12,0.508541882038,0.512048900127,0.0167754851282,0.00707250398184,0.0127420152407,0.0258147934115,0.999560512013
1624516343533453033,0,1624516343533155017,world,cf7,-0.457278966904,-0.492021918297,0.0165902171284,0.0162349864272,-0.0060484776993,-0.0144129944461,0.99974602111
1624516343543367184,0,1624516343543088933,world,cf10,-0.513386487961,0.495341718197,0.0138175832108,0.00192942228457,0.00588463021974,0.0698576728045,0.997537745655
1624516343543407762,0,1624516343543112889,world,cf11,0.519451975822,-0.466320604086,0.0185278169811,0.00483541004407,-0.00920927058996,-0.066737234599,0.997716367342
1624516343543426480,0,1624516343543118965,world,cf12,0.50853651762,0.512020587921,0.0167596992105,0.00682931892,0.0130656498674,0.0253965011392,0.999568740471
1624516343543466010,0,1624516343543124622,world,cf7,-0.457313090563,-0.492112666368,0.0166062545031,0.0160201486768,-0.00554914901271,-0.0145856372,0.999749879204
1624516343553348034,0,1624516343553118184,world,cf10,-0.51333719492,0.495274066925,0.0137945991009,0.0015479526602,0.00627176049348,0.0703915586539,0.997498519965
1624516343553366891,0,1624516343553142419,world,cf11,0.519386529922,-0.466219693422,0.0185609459877,0.00477817662042,-0.0099588643446,-0.0681694086069,0.997612611077
