%time,field.transforms0.header.seq,field.transforms0.header.stamp,field.transforms0.header.frame_id,field.transforms0.child_frame_id,field.transforms0.transform.translation.x,field.transforms0.transform.translation.y,field.transforms0.transform.translation.z,field.transforms0.transform.rotation.x,field.transforms0.transform.rotation.y,field.transforms0.transform.rotation.z,field.transforms0.transform.rotation.w
1630213383290663083,0,1630213383290325606,world,cf33,2.02137231827,1.03378081322,0.0215436052531,-0.00270552941015,-0.00947549780206,0.0540294103998,0.998490719969
1630213383290697446,0,1630213383290344813,world,cf41,-1.05922532082,1.0589479208,0.0244752112776,0.00511726729624,-0.022274788147,0.00145889793276,0.999737725109
1630213383290712601,0,1630213383290350889,world,cf17,-1.01346349716,0.0459926612675,0.0298560447991,-0.00704968460918,0.025473470578,-0.00728424565671,0.999624101355
1630213383290768615,0,1630213383290355848,world,cf20,2.01303577423,0.0153298685327,0.0167611259967,-0.00604889581334,0.00356334606662,0.00319709811334,0.999970245551
1630213383300767137,0,1630213383300463883,world,cf33,2.02135133743,1.03371334076,0.0215267241001,-0.00262105722793,-0.00973602297673,0.0541219714904,0.998483426061
1630213383300804992,0,1630213383300488607,world,cf41,-1.05921876431,1.0589145422,0.0244881864637,0.00554033800132,-0.0226006699119,0.0016083188011,0.999727926831
1630213383300828808,0,1630213383300495521,world,cf17,-1.01347255707,0.0459572672844,0.0298268962651,-0.00631863568877,0.0250789724676,-0.00716928150271,0.999639795819
1630213383300847944,0,1630213383300501318,world,cf20,2.01302838326,0.0152751337737,0.0167926587164,-0.00635699087578,0.00389270995427,0.00382817558648,0.999964889658
1630213383310795901,0,1630213383310454513,world,cf33,2.02138018608,1.0337998867,0.0215457938612,-0.00252197313679,-0.00980518585059,0.0540072850608,0.998489214334
1630213383310846746,0,1630213383310475605,world,cf41,-1.05923306942,1.05890870094,0.0244667511433,0.00556770053343,-0.0222260092437,0.0016431010824,0.999736117904
1630213383310862740,0,1630213383310481263,world,cf17,-1.01351320744,0.0460103936493,0.0299208518118,-0.00733599213055,0.0254937561668,-0.00788954559385,0.999616929972
1630213383310910931,0,1630213383310486082,world,cf20,2.01304507256,0.0153138432652,0.0168147273362,-0.00677511779022,0.00382422251276,0.00313863197625,0.999964810426
1630213383320705515,0,1630213383320384590,world,cf33,2.02135276794,1.0337266922,0.0215058382601,-0.00250791248602,-0.00986960447108,0.0541613405448,0.998480270448
1630213383320731426,0,1630213383320410921,world,cf41,-1.05921983719,1.05892574787,0.0244850870222,0.00532159586211,-0.0218654314014,0.00155132090567,0.999745556094
1630213383320756779,0,1630213383320420489,world,cf17,-1.01349198818,0.0459777861834,0.0298884734511,-0.00683570977665,0.0256582367603,-0.00777605546797,0.999617157175
1630213383320778849,0,1630213383320427683,world,cf20,2.01306581497,0.0152908554301,0.0167897939682,-0.00646891681368,0.00343072765562,0.00381557273017,0.999965911733
1630213383330804680,0,1630213383330528664,world,cf33,2.0213766098,1.0337395668,0.0215046424419,-0.00271732098875,-0.00956936814431,0.0542023395188,0.998480420314
1630213383330836178,0,1630213383330554086,world,cf41,-1.05920994282,1.05891096592,0.0245058201253,0.00521965265455,-0.0217837201653,0.00149243845188,0.999747966934
1630213383330856293,0,1630213383330563305,world,cf17,-1.01349902153,0.0459397435188,0.0298885609955,-0.00722575820816,0.0256542202863,-0.00807748713942,0.999612126578
1630213383330888141,0,1630213383330572036,world,cf20,2.01302218437,0.015316859819,0.0167469754815,-0.00550716170248,0.00389936509993,0.00335546807341,0.999971603075
1630213383340567276,0,1630213383340282250,world,cf33,2.02135014534,1.03371477127,0.0214801970869,-0.00261726415277,-0.00981288305001,0.0541546677197,0.998480910793
1630213383340606317,0,1630213383340306625,world,cf41,-1.05918741226,1.05889165401,0.0244894661009,0.00523041658607,-0.0221305621715,0.00159679808548,0.999740131832
1630213383340643753,0,1630213383340315635,world,cf17,-1.01349341869,0.0459794104099,0.029910735786,-0.00687712799019,0.0254433451431,-0.00766382687407,0.999623232551
1630213383340662191,0,1630213383340324155,world,cf20,2.01303124428,0.0153241455555,0.0167768206447,-0.00609328082363,0.00429384594396,0.00336460837262,0.999966556554
1630213383350745781,0,1630213383350482127,world,cf33,2.02136683464,1.03373074532,0.0214710719883,-0.00265775575523,-0.00988379218242,0.0541385228298,0.998480979955
1630213383350777280,0,1630213383350506781,world,cf41,-1.05920851231,1.05887567997,0.0244727469981,0.00544408668588,-0.0219165499082,0.0013500559301,0.999744069304
1630213383350793064,0,1630213383350515931,world,cf17,-1.0134922266,0.0459684319794,0.0298579316586,-0.00671830197389,0.0259716373749,-0.00791246423763,0.999608789167
1630213383350846703,0,1630213383350525569,world,cf20,2.01300883293,0.0153417596593,0.0167270433158,-0.00589515832306,0.00380180662741,0.00345410316217,0.999969430806
1630213383360618867,0,1630213383360299689,world,cf33,2.02136659622,1.03371691704,0.0214721933007,-0.00288575516073,-0.00982408694335,0.0541498290242,0.998480323166
1630213383360642194,0,1630213383360325391,world,cf41,-1.05921566486,1.05887937546,0.0244685597718,0.00537994488289,-0.0223307826565,0.0015824269042,0.999734908995
1630213383360683192,0,1630213383360335169,world,cf17,-1.01351451874,0.0460077226162,0.0298947170377,-0.00672643272481,0.0256986548623,-0.0080962480717,0.999614318129
1630213383360705471,0,1630213383360342781,world,cf20,2.0130147934,0.0153642324731,0.0167344845831,-0.00614857777527,0.00406292833041,0.00291117635058,0.999968605836
1630213383370677174,0,1630213383370366656,world,cf33,2.0213842392,1.03380346298,0.0215412210673,-0.00261190695666,-0.00957471873841,0.0540259366745,0.998490210703
1630213383370710559,0,1630213383370416524,world,cf41,-1.05921649933,1.05891561508,0.0244736485183,0.00529242319686,-0.0225310368298,0.00152737278442,0.999730968695
1630213383370733397,0,1630213383370426441,world,cf17,-1.01351332664,0.0460324399173,0.0298633445054,-0.00686066778726,0.0258247049416,-0.00783941143725,0.999612204548
1630213383370790039,0,1630213383370434962,world,cf20,2.01301383972,0.0153604829684,0.0167497768998,-0.00575296664223,0.00406717548739,0.00316210947256,0.999970180816
1630213383380683100,0,1630213383380404989,world,cf33,2.0213637352,1.03374803066,0.0215189568698,-0.00277085012412,-0.00964547573463,0.0540268145204,0.998489053771
1630213383380702446,0,1630213383380430970,world,cf41,-1.05920171738,1.05890321732,0.0244637541473,0.00534342785125,-0.0226458849962,0.00161870847468,0.999727958724
1630213383380720396,0,1630213383380440259,world,cf17,-1.01349282265,0.046023003757,0.029851814732,-0.00667983955211,0.0255058579145,-0.00755706766476,0.999623790075
1630213383380758530,0,1630213383380448012,world,cf20,2.01302099228,0.0153026496992,0.0167529508471,-0.0063769184539,0.00394969110594,0.00336305403851,0.999966211789
1630213383390774373,0,1630213383390493189,world,cf33,2.02137184143,1.03376340866,0.0215375162661,-0.0025400695813,-0.00954016558322,0.0540236596361,0.998490849976
1630213383390787433,0,1630213383390519030,world,cf41,-1.05921387672,1.05889642239,0.0244511701167,0.00518553656137,-0.0222764107763,0.00151074223301,0.99973726018
1630213383390799656,0,1630213383390528738,world,cf17,-1.01348769665,0.0460054501891,0.0298770703375,-0.00680645569552,0.02512726613,-0.00770871171153,0.999631366265
1630213383390806081,0,1630213383390536491,world,cf20,2.01302623749,0.0153706371784,0.0167414005846,-0.00487845981899,0.00394425063782,0.0024007381158,0.999977439732
1630213383400849093,0,1630213383400512175,world,cf33,2.02136993408,1.03375613689,0.0215192381293,-0.00262374315011,-0.00972685312961,0.0539076217611,0.998495103952
1630213383400877100,0,1630213383400537667,world,cf41,-1.05917394161,1.05890417099,0.024453131482,0.0049875544799,-0.0224666477179,0.00182914740219,0.999733478613
1630213383400902313,0,1630213383400547585,world,cf17,-1.01350653172,0.0459954552352,0.0298342313617,-0.00661228591747,0.0254881547538,-0.00763154768652,0.99962412492
1630213383400939818,0,1630213383400555686,world,cf20,2.0130109787,0.0152809107676,0.016798067838,-0.00723708915313,0.00422506070487,0.00318878182702,0.999959801729
1630213383410853762,0,1630213383410555606,world,cf33,2.02137732506,1.03374433517,0.0215087011456,-0.00264114211366,-0.00958947371881,0.0540801845598,0.9984870555
1630213383410873946,0,1630213383410581936,world,cf41,-1.0592302084,1.05891370773,0.0244836229831,0.00511558815865,-0.0220201200145,0.00131610488965,0.999743573593
1630213383410896295,0,1630213383410591435,world,cf17,-1.01348304749,0.0459670908749,0.0298727415502,-0.00742199522836,0.0256390782734,-0.00762638049159,0.999614620728
1630213383410949026,0,1630213383410598489,world,cf20,2.01302576065,0.0153247453272,0.0167956855148,-0.00665867332193,0.00378241694686,0.0033466634519,0.999965077008
1630213383420584440,0,1630213383420296481,world,cf33,2.02137994766,1.03375458717,0.0215260218829,-0.00236364525275,-0.00987781310696,0.0541059452508,0.99848354452
1630213383420617545,0,1630213383420322322,world,cf41,-1.05917680264,1.05882835388,0.024457283318,0.00507438241106,-0.022523211835,0.00163811530507,0.99973210019
1630213383420643805,0,1630213383420331961,world,cf17,-1.01346445084,0.0459677837789,0.0298902969807,-0.00682975845994,0.0256511785764,-0.00750410211005,0.999619457538
1630213383420664129,0,1630213383420339992,world,cf20,2.01305532455,0.0153166428208,0.0167757291347,-0.00594251309466,0.00360420104923,0.00329702991661,0.999970412496
1630213383430692614,0,1630213383430422255,world,cf33,2.02136588097,1.03374540806,0.021496526897,-0.00261020523899,-0.00978444528644,0.0541147596312,0.998483372044
1630213383430716849,0,1630213383430448865,world,cf41,-1.05916893482,1.05882668495,0.0244781672955,0.00514205530455,-0.022528159718,0.00168105617472,0.999731571642
1630213383430727465,0,1630213383430458992,world,cf17,-1.01350152493,0.0459474027157,0.0298585146666,-0.00640883239722,0.0253859772868,-0.00781659582935,0.999626620221
1630213383430737802,0,1630213383430467024,world,cf20,2.01300144196,0.0153697738424,0.0167553536594,-0.00602844172106,0.00393268792533,0.00354413828399,0.999967814952
1630213383440488804,0,1630213383440207480,world,cf33,2.02133631706,1.03368890285,0.0214624553919,-0.00276946344495,-0.00986891047273,0.0543202121044,0.998470955629
1630213383440517020,0,1630213383440233461,world,cf41,-1.05918610096,1.05882751942,0.0244591515511,0.00539182499327,-0.0221523139739,0.00162118894597,0.999738753353
1630213383440526379,0,1630213383440240236,world,cf17,-1.01347112656,0.0459230020642,0.0299145895988,-0.00748560102626,0.0254680716048,-0.00751622850007,0.999619352261
1630213383440555084,0,1630213383440245893,world,cf20,2.01299977303,0.0153435552493,0.0167243722826,-0.00570928434995,0.00410861794095,0.00336964236205,0.999969583958
1630213383450682605,0,1630213383450365871,world,cf33,2.02137517929,1.0337485075,0.0214909594506,-0.00267848628893,-0.00972864405484,0.0540578701248,0.998486818077
1630213383450712847,0,1630213383450409942,world,cf41,-1.05921137333,1.05890357494,0.0244810059667,0.00538838977141,-0.0221660880763,0.00163249088298,0.99973844818
1630213383450722834,0,1630213383450417484,world,cf17,-1.01346480846,0.0459648743272,0.0298347771168,-0.00631544406101,0.0250530128407,-0.00718771099592,0.999640334583
1630213383450736663,0,1630213383450423631,world,cf20,2.01301574707,0.0152937658131,0.016762541607,-0.00680152224613,0.00422274641645,0.00377536303913,0.999960826404
1630213383460820742,0,1630213383460516859,world,cf33,2.02137517929,1.03376972675,0.0215168017894,-0.00276874913376,-0.00936997121512,0.0540308541656,0.998491464393
1630213383460865860,0,1630213383460542351,world,cf41,-1.05922830105,1.05892062187,0.024488279596,0.00530351781223,-0.0218051202083,0.00151938045704,0.999747018457
1630213383460885136,0,1630213383460551920,world,cf17,-1.0134768486,0.0459548644722,0.0299003887922,-0.00728836856693,0.0255223480583,-0.00761606373469,0.999618669797
1630213383460903435,0,1630213383460559742,world,cf20,2.01299834251,0.0153389703482,0.0167491436005,-0.00629246650223,0.00416716139132,0.00259004811137,0.999968165134
1630213383470660793,0,1630213383470336306,world,cf33,2.02136588097,1.03373086452,0.0215127114207,-0.00268461888565,-0.0098880522801,0.0542732380307,0.998473552417
1630213383470681606,0,1630213383470361938,world,cf41,-1.05920958519,1.05893290043,0.0244647748768,0.00555629048293,-0.0224646478056,0.00165872379986,0.999730821707
1630213383470697320,0,1630213383470371716,world,cf17,-1.01346278191,0.0459481067955,0.029838360846,-0.00691179132129,0.0254019551981,-0.00750450642184,0.999625254881
1630213383470710590,0,1630213383470399304,world,cf20,2.01301336288,0.0153252864257,0.0167705994099,-0.00625133032988,0.00397497079562,0.00293073609536,0.999968265128
1630213383480865698,0,1630213383480559441,world,cf33,2.02134442329,1.03369724751,0.0214967168868,-0.00269360751116,-0.00976001951174,0.0543455005166,0.998470857397
1630213383480883578,0,1630213383480585352,world,cf41,-1.05922341347,1.05896353722,0.0244870167226,0.0050444254588,-0.0218084048506,0.00124710160124,0.999748664409
1630213383480910467,0,1630213383480591987,world,cf17,-1.01349639893,0.0459905229509,0.0298825670034,-0.00689600402156,0.0253345703393,-0.00765763682257,0.999625912666
1630213383480949998,0,1630213383480597644,world,cf20,2.01304483414,0.0153188882396,0.0167643185705,-0.00602917696247,0.00352261260323,0.00320274241593,0.999970490898
1630213383490678092,0,1630213383490393066,world,cf33,2.02136731148,1.03373908997,0.0215212423354,-0.0027480311442,-0.00966588212705,0.0541274356393,0.998483469948
1630213383490702187,0,1630213383490417581,world,cf41,-1.05921208858,1.05893790722,0.0244808997959,0.00496404807272,-0.0219007713174,0.00154819887596,0.999746626662
1630213383490716575,0,1630213383490424286,world,cf17,-1.01346540451,0.0459875427186,0.0298718418926,-0.00707578192198,0.0253822616803,-0.00733581742892,0.999625859952
1630213383490737178,0,1630213383490430222,world,cf20,2.01302742958,0.01530471351,0.0167863368988,-0.00666367261074,0.00372659204605,0.00274135171739,0.999967095944
1630213383500684506,0,1630213383500423716,world,cf33,2.02139854431,1.03380203247,0.021543327719,-0.00244530919397,-0.00973979850917,0.0539622307682,0.998492480912
1630213383500703853,0,1630213383500447532,world,cf41,-1.05921626091,1.05891704559,0.0244887508452,0.00499034478508,-0.022235737748,0.00143343813224,0.999739272851
1630213383500718869,0,1630213383500453888,world,cf17,-1.01344263554,0.0459832549095,0.0298537816852,-0.00738885548736,0.0253738803583,-0.00697085881489,0.999626419287
1630213383500730183,0,1630213383500459405,world,cf20,2.01301836967,0.0152956414968,0.0167727358639,-0.00613048991188,0.00435653137336,0.00321517135766,0.999966549641
1630213383510764395,0,1630213383510458137,world,cf33,2.02134895325,1.03370511532,0.021488238126,-0.00265128979054,-0.00993145811022,0.0543475446346,0.998469168875
1630213383510792401,0,1630213383510483490,world,cf41,-1.05921804905,1.05894398689,0.0244466047734,0.00589488783656,-0.022287734268,0.00164153371736,0.999732870604
1630213383510812865,0,1630213383510490265,world,cf17,-1.01346111298,0.0459708124399,0.0298794619739,-0.0073070303425,0.0253809432551,-0.00752374491709,0.999622833017
1630213383510828859,0,1630213383510495992,world,cf20,2.01298451424,0.0153528153896,0.0167549308389,-0.00600422420138,0.00396572621188,0.00322542928929,0.999968908973
1630213383520621976,0,1630213383520304474,world,cf33,2.02139019966,1.03374397755,0.0214945543557,-0.00283988167556,-0.00953914777719,0.0541627105544,0.998482518884
1630213383520641671,0,1630213383520330036,world,cf41,-1.05920779705,1.05894804001,0.0244676545262,0.00545607936708,-0.0219621159591,0.00186855989805,0.999742169334
1630213383520666745,0,1630213383520336671,world,cf17,-1.01345765591,0.0459664613008,0.0298836585134,-0.00684113898597,0.0255622325448,-0.00728948745551,0.999623246257
1630213383520698523,0,1630213383520342608,world,cf20,2.01304411888,0.0153294634074,0.0167721174657,-0.00626036700037,0.00379906727776,0.00361205142164,0.999966663433
1630213383530700537,0,1630213383530443030,world,cf33,2.02137947083,1.03370058537,0.0214875098318,-0.00277414243686,-0.00958460572659,0.0543170163403,0.99847388609
1630213383530726938,0,1630213383530467474,world,cf41,-1.05922269821,1.05894970894,0.0244719814509,0.0056627603448,-0.021873254766,0.00181635589243,0.999743064353
1630213383530740417,0,1630213383530474878,world,cf17,-1.01346814632,0.0459702163935,0.0298724267632,-0.0070040665101,0.0255130217842,-0.00771014035222,0.999620219137
1630213383530784907,0,1630213383530480535,world,cf20,2.01299905777,0.0153680024669,0.0167518109083,-0.00586090195693,0.00415501095427,0.00298744629074,0.99996972998
1630213383540723225,0,1630213383540410403,world,cf33,2.02136993408,1.03374028206,0.021491125226,-0.0026562039875,-0.00957328382162,0.0540697959364,0.998487733517
1630213383540748927,0,1630213383540428352,world,cf41,-1.05921769142,1.05893993378,0.0245016515255,0.0053700493152,-0.0217516200515,0.00177723764484,0.999747403608
1630213383540763454,0,1630213383540432473,world,cf17,-1.01347148418,0.0459550246596,0.0298959687352,-0.00686198102738,0.0257275049502,-0.00766039688834,0.999616089819
1630213383540773092,0,1630213383540435895,world,cf20,2.01305913925,0.01533310581,0.0167801324278,-0.00672550286358,0.00382505741027,0.00333546041992,0.999964504995
1630213383550656934,0,1630213383550299832,world,cf33,2.0213906765,1.03374898434,0.0215126164258,-0.00263495122116,-0.00957881593343,0.0539452262643,0.998494474637
1630213383550685709,0,1630213383550316733,world,cf41,-1.05920004845,1.05889749527,0.0244873445481,0.00548442407789,-0.0217983406518,0.00183040497763,0.999745669185
1630213383550724052,0,1630213383550320924,world,cf17,-1.01348519325,0.0459052659571,0.0298938918859,-0.00689167145472,0.0255373693525,-0.00761908187097,0.99962107682
1630213383550747519,0,1630213383550324416,world,cf20,2.01303362846,0.0153630180284,0.0167650263757,-0.00565778894968,0.00443456284632,0.00336795330549,0.999968489987
1630213383560636739,0,1630213383560330551,world,cf33,2.02137470245,1.03374946117,0.021523270756,-0.00253050384474,-0.00970843922824,0.0540054415945,0.998490237827
1630213383560655527,0,1630213383560347523,world,cf41,-1.05921387672,1.05893909931,0.024497102946,0.00562927317466,-0.0215903056579,0.00176876773086,0.999749489345
1630213383560670752,0,1630213383560351783,world,cf17,-1.01348018646,0.0459438189864,0.0298917200416,-0.00651654840616,0.0257853141838,-0.00761104662332,0.999617288835
1630213383560691425,0,1630213383560355206,world,cf20,2.01300215721,0.0152660943568,0.016754116863,-0.0064113809165,0.00410854620602,0.00329290229607,0.999965584826
1630213383570785771,0,1630213383570491806,world,cf33,2.02136063576,1.03375458717,0.0215393994004,-0.00268138542159,-0.00951011639872,0.0540409744314,0.998489830164
1630213383570837035,0,1630213383570509127,world,cf41,-1.0592135191,1.05894267559,0.0244904849678,0.00556555441247,-0.0215333478335,0.00165000175011,0.999751277583
1630213383570851981,0,1630213383570513387,world,cf17,-1.01348876953,0.0459642857313,0.0298973880708,-0.00657099721923,0.0255545304662,-0.00748893995324,0.999623781103
1630213383570976929,0,1630213383570516809,world,cf20,2.01298141479,0.0152440527454,0.0168055575341,-0.00721333464389,0.00440541986343,0.00324794910287,0.999959004613
1630213383580699855,0,1630213383580356441,world,cf33,2.02137708664,1.03374242783,0.021541621536,-0.00270236374437,-0.00953650746053,0.0543238367115,0.998474172435
1630213383580748255,0,1630213383580373203,world,cf41,-1.0592058897,1.05895864964,0.0244891289622,0.00556282427694,-0.0220659918524,0.00162404405421,0.999739720863
1630213383580776611,0,1630213383580377324,world,cf17,-1.01348173618,0.0459697209299,0.029892090708,-0.0073980059582,0.0257558316849,-0.00769035789001,0.999611306978
1630213383580798541,0,1630213383580380956,world,cf20,2.01300501823,0.0153000066057,0.0167994424701,-0.00682357214391,0.00401603466113,0.00302119568125,0.999964090708
1630213383590633214,0,1630213383590353846,world,cf33,2.0213561058,1.03373301029,0.0215035136789,-0.00285593278999,-0.00960147561816,0.054082650394,0.998486215348
1630213383590652840,0,1630213383590371795,world,cf41,-1.05920600891,1.05898618698,0.0244508944452,0.00542431702218,-0.0222734848215,0.00161150797815,0.999735900976
1630213383590675189,0,1630213383590393167,world,cf17,-1.01346862316,0.0460050366819,0.0298915524036,-0.00779325094978,0.0253702439056,-0.0073810531667,0.999620495997
1630213383590687971,0,1630213383590397288,world,cf20,2.01300787926,0.0153292464092,0.0167679134756,-0.00633260736195,0.00410283256502,0.00304308272162,0.9999669017
1630213383600610644,0,1630213383600284412,world,cf33,2.02137756348,1.03375029564,0.0215007066727,-0.00273624511526,-0.00982956239484,0.0543405165984,0.998470330516
1630213383600638861,0,1630213383600308577,world,cf41,-1.05922985077,1.05896341801,0.0244433507323,0.0054977591203,-0.022241713124,0.00173810622208,0.999735995065
1630213383600680347,0,1630213383600315212,world,cf17,-1.01345217228,0.0460180416703,0.0298620890826,-0.00766397677753,0.0253840048636,-0.00747794835504,0.999620425985
1630213383600736709,0,1630213383600321149,world,cf20,2.01303529739,0.0153649868444,0.0167666804045,-0.006105990954,0.00416743234486,0.00282394787038,0.99996868686
1630213383610887767,0,1630213383610644786,world,cf33,2.02136683464,1.03371298313,0.0214753318578,-0.00283966847114,-0.0096768515028,0.0541697154059,0.998480814418
1630213383610921920,0,1630213383610669720,world,cf41,-1.05920994282,1.05895423889,0.0244706757367,0.00566062842195,-0.0222732182107,0.0015477567179,0.99973469755
1630213383610943012,0,1630213383610678311,world,cf17,-1.01344525814,0.0459848828614,0.0299005266279,-0.00795093180094,0.0252923574726,-0.00709484053113,0.999623300336
1630213383610955234,0,1630213383610687320,world,cf20,2.01303172112,0.0153848212212,0.016769785434,-0.00657051886821,0.0037809079053,0.00316680661276,0.999966251607
1630213383620856187,0,1630213383620549581,world,cf33,2.02135920525,1.03369319439,0.0214786380529,-0.00272613420109,-0.00982290992007,0.0544659096652,0.998463591383
1630213383620875883,0,1630213383620572629,world,cf41,-1.0592238903,1.05894649029,0.0244804657996,0.00530521995937,-0.0216882584882,0.00147986378576,0.999749610697
1630213383620894112,0,1630213383620579403,world,cf17,-1.01348745823,0.0459969714284,0.0298753771931,-0.00674625868887,0.0253554344294,-0.00757054111284,0.999627068884
1630213383620913458,0,1630213383620585130,world,cf20,2.01303100586,0.0153939062729,0.0167728234082,-0.00600007033062,0.00384294099638,0.00249485809706,0.999971502916
1630213383630717959,0,1630213383630417289,world,cf33,2.02137041092,1.03371620178,0.0215011853725,-0.00270886073718,-0.00941526260179,0.0542048116948,0.998481774142
1630213383630751414,0,1630213383630442153,world,cf41,-1.05921697617,1.05892980099,0.0244786143303,0.0055617940051,-0.021711006178,0.00180416130276,0.999747189874
1630213383630775439,0,1630213383630448927,world,cf17,-1.01346063614,0.0459534414113,0.0298319254071,-0.0063359388466,0.0261647963337,-0.00761988902536,0.999608521674
1630213383630800932,0,1630213383630454724,world,cf20,2.01302504539,0.0153428744525,0.0167523361742,-0.00585833335111,0.00414820669864,0.00296297391805,0.999969846094
1630213383641084060,0,1630213383640709916,world,cf33,2.02135753632,1.03372037411,0.0214974861592,-0.00250699607114,-0.00975579780807,0.0540852032019,0.99848551826
1630213383641120448,0,1630213383640733383,world,cf41,-1.05923330784,1.05888068676,0.0244759377092,0.00505771344055,-0.0218380017256,0.00160118295879,0.999747446823
1630213383641143636,0,1630213383640740158,world,cf17,-1.01347470284,0.0459221377969,0.0298563316464,-0.00626529563315,0.0258457063132,-0.00743725193082,0.999618643693
1630213383641186170,0,1630213383640745955,world,cf20,2.01303625107,0.0153335481882,0.0167682282627,-0.00665519936956,0.0036905714778,0.0027054696935,0.999967383687
1630213383650853710,0,1630213383650554088,world,cf33,2.02135825157,1.03372573853,0.0214964002371,-0.00267938573813,-0.00998476623606,0.0543415924548,0.998468886178
1630213383650881228,0,1630213383650577136,world,cf41,-1.05921077728,1.05886518955,0.0244599282742,0.00546662569181,-0.0218153843325,0.00154940438465,0.999745869887
1630213383650895406,0,1630213383650583841,world,cf17,-1.01348221302,0.0459459796548,0.0298807155341,-0.00652088895666,0.0261745590833,-0.00767718976207,0.999606638244
1630213383650906511,0,1630213383650589218,world,cf20,2.01301670074,0.0152746681124,0.0167490597814,-0.00653112785852,0.00403637586745,0.00327848300344,0.999965151187
1630213383660900843,0,1630213383660610160,world,cf33,2.02139377594,1.03379046917,0.0215385593474,-0.0026849242947,-0.00954227059497,0.0539607332934,0.998493853519
1630213383660921377,0,1630213383660633138,world,cf41,-1.05919253826,1.0588670969,0.0244547072798,0.00555552509895,-0.022652688086,0.00205624434784,0.999725844281
1630213383660940304,0,1630213383660639634,world,cf17,-1.01346790791,0.0459531247616,0.0298887919635,-0.00720234812177,0.0255210918177,-0.00782851865653,0.999617684092
1630213383660952247,0,1630213383660645221,world,cf20,2.01300907135,0.0153023889288,0.0167372524738,-0.00649033356846,0.00348407570824,0.00354713788901,0.999966576741
1630213383670763104,0,1630213383670473329,world,cf33,2.02137184143,1.03373253345,0.0215141084045,-0.00267840664113,-0.0099623947721,0.054400775246,0.998465889493
1630213383670782729,0,1630213383670496796,world,cf41,-1.05921244621,1.05896711349,0.0244615543634,0.00564456552173,-0.0219445939242,0.00170164545887,0.999741805708
1630213383670812622,0,1630213383670503710,world,cf17,-1.01346325874,0.0459598079324,0.0298645701259,-0.00732892237854,0.0255609917823,-0.00773126723406,0.999616501516
1630213383670838184,0,1630213383670509577,world,cf20,2.0130417347,0.015301794745,0.0167815610766,-0.0066392594259,0.00348578906957,0.00365776360437,0.999965194531
1630213383680715251,0,1630213383680344040,world,cf33,2.02138876915,1.03374361992,0.0215137843043,-0.00249564930985,-0.0096789283333,0.054001484913,0.998490826051
1630213383680747029,0,1630213383680369323,world,cf41,-1.05920684338,1.05896985531,0.024465110153,0.00589466063174,-0.0219512885348,0.00148139851154,0.99974056603
1630213383680757016,0,1630213383680376098,world,cf17,-1.0134691,0.0459758639336,0.0298417229205,-0.00719929903274,0.0257123316736,-0.00756535862913,0.999614831544
1630213383680781601,0,1630213383680382104,world,cf20,2.01300668716,0.0153259215876,0.0167659539729,-0.00607216365466,0.00416813842363,0.0031218317246,0.999968004297
1630213383690863654,0,1630213383690569899,world,cf33,2.02135634422,1.03374671936,0.0215157102793,-0.00260658834739,-0.00959482484461,0.0539701380572,0.998493049165
1630213383690889706,0,1630213383690591410,world,cf41,-1.05922496319,1.05893146992,0.0244634952396,0.00509329331383,-0.021618785546,0.00176413626722,0.999751756337
1630213383690925674,0,1630213383690597975,world,cf17,-1.01347279549,0.0460025332868,0.0298443622887,-0.00695923698529,0.0253455874728,-0.00738218641183,0.999627267305
1630213383690943484,0,1630213383690603423,world,cf20,2.01301860809,0.0153444185853,0.0167871546,-0.00664071516424,0.00399135385453,0.00287124123323,0.999965862402
1630213383700587558,0,1630213383700246938,world,cf33,2.02138543129,1.03372359276,0.0214891992509,-0.0026587301802,-0.00991497669476,0.0542785980573,0.998473063324
1630213383700614657,0,1630213383700270195,world,cf41,-1.05921506882,1.05896663666,0.0244914144278,0.0053428136863,-0.0219607800736,0.00177155703236,0.999742987005
1630213383700648600,0,1630213383700276551,world,cf17,-1.01347839832,0.04599371925,0.0298907086253,-0.0075343797501,0.0254784510714,-0.0073712083066,0.999619801195
1630213383700714112,0,1630213383700282069,world,cf20,2.01303577423,0.0153675423935,0.0167696047574,-0.00673365251324,0.00378808649755,0.00313889623766,0.999965227223
1630213383711092645,0,1630213383710742247,world,cf33,2.02136111259,1.03371751308,0.0214729532599,-0.00258260851293,-0.0100869006468,0.0542144854852,0.998475024291
1630213383711117509,0,1630213383710764178,world,cf41,-1.05921792984,1.05896985531,0.024477571249,0.00554837000186,-0.0220959705351,0.00164908925352,0.999739098056
1630213383711171636,0,1630213383710771581,world,cf17,-1.01346969604,0.0459774360061,0.029893854633,-0.00721658473128,0.0258469539428,-0.00774380736205,0.999609868561
1630213383711185465,0,1630213383710777517,world,cf20,2.01302099228,0.0153587656096,0.0167797543108,-0.00621683025352,0.0041309931349,0.00327976917126,0.999966763963
1630213383720798319,0,1630213383720489129,world,cf33,2.02136945724,1.03375697136,0.0215063709766,-0.00252472565394,-0.00977270874318,0.0539921527869,0.99849034415
1630213383720825628,0,1630213383720514551,world,cf41,-1.05923426151,1.05892574787,0.0244663543999,0.00522924676393,-0.0217106638732,0.00166356527412,0.99974923586
1630213383720869419,0,1630213383720522792,world,cf17,-1.01346540451,0.0459551401436,0.0298310201615,-0.00684571561565,0.0251526261037,-0.00706978345043,0.999635183324
1630213383720883038,0,1630213383720530475,world,cf20,2.01303505898,0.0153290433809,0.0167778301984,-0.00668768619459,0.00367731780757,0.00330571801139,0.99996541161
1630213383730697038,0,1630213383730397625,world,cf33,2.02135467529,1.03372502327,0.0214977730066,-0.00269596670977,-0.00993659427517,0.0543752082078,0.998467492005
1630213383730716593,0,1630213383730427936,world,cf41,-1.05920243263,1.05894637108,0.0244774091989,0.00551718761543,-0.021718789235,0.00175715950764,0.999747351697
1630213383730742156,0,1630213383730434781,world,cf17,-1.01347565651,0.0459563024342,0.0298529677093,-0.00640493228837,0.0252599629589,-0.0075076392,0.999632205597
1630213383730767578,0,1630213383730440508,world,cf20,2.01300311089,0.0153978811577,0.01677826792,-0.00609781374577,0.00410164203816,0.00252674130139,0.999969803933
1630213383740739211,0,1630213383740410884,world,cf33,2.02135419846,1.03371608257,0.0214891321957,-0.00269624632036,-0.00968028864979,0.054060554911,0.998487094894
1630213383740769313,0,1630213383740435328,world,cf41,-1.05920243263,1.05891621113,0.0244753211737,0.00579388112834,-0.0221785381108,0.00200097867922,0.999735234686
1630213383740784679,0,1630213383740442033,world,cf17,-1.01348626614,0.0459481813014,0.0298556610942,-0.00634034125684,0.0255736600109,-0.00774447489988,0.999622834421
1630213383740805003,0,1630213383740447830,world,cf20,2.01301193237,0.0152336806059,0.016791285947,-0.00656300280298,0.00455900940101,0.00442251569385,0.999958291021
1630213383750804363,0,1630213383750507604,world,cf33,2.02136087418,1.03374326229,0.0215204320848,-0.00267494515568,-0.00946364362409,0.0541073491882,0.998486694394
1630213383750833767,0,1630213383750533446,world,cf41,-1.05921447277,1.05892002583,0.0244772285223,0.00560693623873,-0.0217777041556,0.00167171376134,0.999745717291
1630213383750854230,0,1630213383750540290,world,cf17,-1.01346087456,0.045925706625,0.0299087315798,-0.00762797860839,0.025479222228,-0.00748945787681,0.99961819271
1630213383750896066,0,1630213383750545808,world,cf20,2.0129904747,0.0152495233342,0.016743734479,-0.00562800643103,0.00455355682559,0.00349817302272,0.999967676202
1630213383760558438,0,1630213383760225781,world,cf33,2.02134919167,1.0337241888,0.021514872089,-0.00268292010908,-0.00967151309718,0.0541754855192,0.998480986571
1630213383760578762,0,1630213383760250086,world,cf41,-1.05921959877,1.05890917778,0.0244850236923,0.00574265827437,-0.022095776629,0.00152947797013,0.999738195343
1630213383760588121,0,1630213383760256651,world,cf17,-1.01344466209,0.0459476336837,0.0299009419978,-0.00716191043786,0.0253359127889,-0.00722034114883,0.999627263151
1630213383760604953,0,1630213383760262448,world,cf20,2.013017416,0.0152607550845,0.016781995073,-0.00712987798504,0.00426486238388,0.00335722168969,0.99995985162
1630213383770705794,0,1630213383770364127,world,cf33,2.02138018608,1.03373658657,0.0214904304594,-0.00243774308836,-0.0098515402888,0.0540495096856,0.998486682468
1630213383770743858,0,1630213383770407289,world,cf41,-1.05920767784,1.05892848969,0.0244732424617,0.00587973187349,-0.022072455007,0.00174262130898,0.999737564941
1630213383770780036,0,1630213383770414413,world,cf17,-1.01349484921,0.045961163938,0.0298126637936,-0.00619324573764,0.0254372990658,-0.00763693169592,0.99962806323
1630213383770801129,0,1630213383770420070,world,cf20,2.01299571991,0.015314547345,0.0167445931584,-0.00616357377883,0.00370125656105,0.00254930577241,0.999970905626
1630213383780798743,0,1630213383780443666,world,cf33,2.02138328552,1.03376913071,0.0215238779783,-0.00256510643777,-0.00962453917116,0.0539703232914,0.998492860605
1630213383780828077,0,1630213383780480613,world,cf41,-1.05922615528,1.05894374847,0.0244835373014,0.00549713275736,-0.0220592836037,0.00180599042393,0.999739920148
1630213383780875709,0,1630213383780487248,world,cf17,-1.013489604,0.0459749251604,0.0298616271466,-0.00677915402311,0.0254656977706,-0.00757070652209,0.999624042183
1630213383780908605,0,1630213383780493044,world,cf20,2.01302814484,0.0152988182381,0.0167408864945,-0.00574730534659,0.00399410313696,0.00376227785129,0.999968429945
1630213383790696833,0,1630213383790364804,world,cf33,2.0213778019,1.03372073174,0.0214995052665,-0.00271322464816,-0.00989032920354,0.0542322068031,0.998475682
1630213383790716877,0,1630213383790420118,world,cf41,-1.05921053886,1.05893754959,0.0244808085263,0.00549298104214,-0.0220723803465,0.00167466338718,0.999739882513
1630213383790726306,0,1630213383790426893,world,cf17,-1.01347637177,0.0460062660277,0.0298891346902,-0.00739206555078,0.0255666261714,-0.00740740210518,0.999618344863
1630213383790772123,0,1630213383790432341,world,cf20,2.01302790642,0.0153474649414,0.01677659899,-0.00591772359558,0.00408352527854,0.00341449994634,0.999968322778
1630213383801003359,0,1630213383800690676,world,cf33,2.02137970924,1.03373026848,0.021482380107,-0.00278661929971,-0.00996147262335,0.0542314041647,0.998474816216
1630213383801030108,0,1630213383800713933,world,cf41,-1.05921065807,1.05894732475,0.024459766224,0.00530932093907,-0.0222779435919,0.00157383082898,0.999736478977
1630213383801046870,0,1630213383800720219,world,cf17,-1.01346743107,0.0459756813943,0.0299098901451,-0.00779513329961,0.0250540938917,-0.00714492298211,0.999630170789
1630213383801103163,0,1630213383800725597,world,cf20,2.01304578781,0.0153667349368,0.016762483865,-0.00610593677918,0.00357542430414,0.00352965189371,0.999968737229
1630213383810737739,0,1630213383810399493,world,cf33,2.02137970924,1.03374063969,0.021497707814,-0.00286721198583,-0.00970119215042,0.0540943021248,0.998484587985
1630213383810778945,0,1630213383810422262,world,cf41,-1.05921304226,1.05897068977,0.024471739307,0.00537472304563,-0.0222218648495,0.00154094617248,0.999737428808
1630213383810799409,0,1630213383810428548,world,cf17,-1.01348435879,0.046036016196,0.0298999007791,-0.00724413998208,0.0257185681497,-0.00737918408506,0.999615738837
1630213383810821689,0,1630213383810434345,world,cf20,2.01303172112,0.0153613332659,0.0167820937932,-0.00648775698549,0.00400527474647,0.00329882396366,0.999965491677
1630213383820838370,0,1630213383820491045,world,cf33,2.02136898041,1.03373336792,0.021507397294,-0.00247050933871,-0.00967824628394,0.0540793640383,0.99848668019
1630213383820860370,0,1630213383820514303,world,cf41,-1.05919897556,1.05892074108,0.024481492117,0.00509897442042,-0.0219354074517,0.00153576224439,0.999745207437
1630213383820887679,0,1630213383820520449,world,cf17,-1.01345908642,0.0459846071899,0.0299054402858,-0.00755163484296,0.0251628501043,-0.00694594407155,0.999630710636
1630213383820930492,0,1630213383820525757,world,cf20,2.01302266121,0.0153092807159,0.0167712084949,-0.00610173406656,0.00395315237612,0.00364434978881,0.999966929524
1630213383830954507,0,1630213383830635049,world,cf33,2.02137970924,1.03375542164,0.0215219911188,-0.00275410706485,-0.00943840090716,0.0540728707675,0.998488585878
1630213383830986564,0,1630213383830658516,world,cf41,-1.0592199564,1.05890238285,0.0244894511998,0.00537529453521,-0.0222311376064,0.00142461819628,0.999737392115
1630213383831008495,0,1630213383830665430,world,cf17,-1.0134832859,0.0459445714951,0.0298380218446,-0.00633775874392,0.025481161231,-0.00758737107752,0.999626417736
1630213383831054381,0,1630213383830670738,world,cf20,2.01299834251,0.0153163056821,0.0167563464493,-0.00608009367107,0.00418128157923,0.00300132896292,0.999968270181
1630213383840718988,0,1630213383840424394,world,cf33,2.02139043808,1.03379142284,0.0215443484485,-0.00256443976277,-0.00963147722087,0.0539674940946,0.998492948336
1630213383840738893,0,1630213383840447233,world,cf41,-1.0592110157,1.0588940382,0.0245022904128,0.00554495724901,-0.0221831594056,0.00148503412756,0.999737443313
1630213383840768157,0,1630213383840453938,world,cf17,-1.01345694065,0.045942094177,0.0298892054707,-0.0069843964141,0.0254350250258,-0.00741781717913,0.99962455637
1630213383840788830,0,1630213383840459804,world,cf20,2.01298189163,0.015303850174,0.0167640317231,-0.00655867162052,0.00406711596798,0.00329934155057,0.99996477775
1630213383850784350,0,1630213383850544442,world,cf33,2.02136898041,1.03375947475,0.0215234532952,-0.00261436642227,-0.00968067838099,0.0540834827961,0.998486067225
1630213383850820109,0,1630213383850566303,world,cf41,-1.05922627449,1.05893993378,0.024501638487,0.00587069819447,-0.0220690655567,0.00125416500033,0.999738424948
1630213383850845252,0,1630213383850572519,world,cf17,-1.01347506046,0.04594951123,0.029848145321,-0.00632564938461,0.0255020626139,-0.00754917019151,0.999626250652
1630213383850873259,0,1630213383850577687,world,cf20,2.01303219795,0.0152335483581,0.0167849715799,-0.00651689358451,0.00407272356343,0.00367175542291,0.999963729959
1630213383860689284,0,1630213383860414874,world,cf33,2.02136111259,1.03372776508,0.0215080659837,-0.00297101030579,-0.00935547619899,0.0541555848468,0.998484261665
1630213383860716033,0,1630213383860438411,world,cf41,-1.05921089649,1.0588889122,0.024465283379,0.00587158830725,-0.0224157904893,0.00183817823961,0.999729802441
1630213383860728256,0,1630213383860447071,world,cf17,-1.01347982883,0.0459506362677,0.0298615451902,-0.00675272947966,0.0256344883329,-0.0076329061551,0.999619433783
1630213383860762758,0,1630213383860456081,world,cf20,2.01299953461,0.0153025873005,0.0167684108019,-0.00666270825853,0.00407044776825,0.00341054239251,0.999963703328
1630213383870823998,0,1630213383870521442,world,cf33,2.02139163017,1.03377115726,0.0215218681842,-0.00257128962595,-0.00972058517868,0.0539711445787,0.998491869895
1630213383870843065,0,1630213383870546166,world,cf41,-1.05922555923,1.05893349648,0.0244784709066,0.00586320282272,-0.0221774525504,0.00142112551036,0.999735847038
1630213383870852145,0,1630213383870552871,world,cf17,-1.01346576214,0.0459401272237,0.0298234280199,-0.00627439394492,0.025445327914,-0.00728166264561,0.99963000388
1630213383870886297,0,1630213383870558459,world,cf20,2.01302194595,0.0153458751738,0.0167539808899,-0.00579612801296,0.00380876361631,0.00317028261296,0.999970923341
1630213383880761758,0,1630213383880450053,world,cf33,2.02139377594,1.0337896347,0.0215235147625,-0.00261489258915,-0.00954330073629,0.0538898564764,0.998497857342
1630213383880784527,0,1630213383880481272,world,cf41,-1.05922806263,1.05894458294,0.0244829691947,0.00508371240958,-0.0220103679095,0.00135156294423,0.999743903632
1630213383880804571,0,1630213383880487698,world,cf17,-1.01346921921,0.0459815561771,0.0298699848354,-0.00697722848427,0.0255352409029,-0.00773234296907,0.999619667987
1630213383880823987,0,1630213383880493215,world,cf20,2.01301836967,0.0153525946662,0.0167822595686,-0.00587107806881,0.00425960082003,0.00287708969459,0.999969553836
1630213383890755950,0,1630213383890482449,world,cf33,2.02138328552,1.03369855881,0.0214921291918,-0.00277434150603,-0.00982464014753,0.054423034357,0.998465779487
1630213383890773620,0,1630213383890516113,world,cf41,-1.05921041965,1.0589402914,0.0244748611003,0.00528133798874,-0.0223800930541,0.00165157764719,0.999734220278
1630213383890803443,0,1630213383890522887,world,cf17,-1.0134857893,0.046017549932,0.0298722684383,-0.00688574474511,0.0256165624174,-0.00744614436493,0.999620394542
1630213383890842135,0,1630213383890529313,world,cf20,2.01301264763,0.0153908003122,0.0167512986809,-0.00604659027037,0.00411880892575,0.00268180523116,0.999969640579
1630213383900795121,0,1630213383900492844,world,cf33,2.02137875557,1.03371286392,0.0214876849204,-0.0026038477603,-0.00981799417708,0.0542454718294,0.998475966538
1630213383900822708,0,1630213383900516730,world,cf41,-1.05920922756,1.05892932415,0.0244566332549,0.00545949711505,-0.0222469992503,0.00172399935816,0.999736111552
1630213383900856372,0,1630213383900523086,world,cf17,-1.01348149776,0.0459722392261,0.0298532769084,-0.00656973302441,0.0254144877823,-0.0075273915552,0.999627070859
1630213383900901630,0,1630213383900528324,world,cf20,2.01302647591,0.0153389042243,0.0167512651533,-0.00582438185476,0.00415402411121,0.00350315909618,0.999968273765
1630213383910637965,0,1630213383910347632,world,cf33,2.02136468887,1.03373408318,0.0214963499457,-0.0025679936481,-0.00999832036159,0.0542705902826,0.998472905005
1630213383910663039,0,1630213383910371867,world,cf41,-1.05920553207,1.05896317959,0.024480426684,0.00558261402064,-0.0219289684978,0.00171406152611,0.999742475218
1630213383910719680,0,1630213383910405880,world,cf17,-1.0134768486,0.0459675900638,0.0298901312053,-0.00757070276402,0.0257138616048,-0.00763473026123,0.999611520879
1630213383910734557,0,1630213383910411886,world,cf20,2.01302552223,0.0154244238511,0.0167826600373,-0.00564372998253,0.00372813334768,0.00213999345134,0.999974834564
1630213383920518315,0,1630213383920237131,world,cf33,2.02136516571,1.03373634815,0.0215168297291,-0.00270383920661,-0.00960451827368,0.0540821774211,0.998486635147
1630213383920561128,0,1630213383920262204,world,cf41,-1.05921161175,1.05895197392,0.0244934745133,0.00561624592634,-0.0222396371645,0.00187194607996,0.999735140994
1630213383920583966,0,1630213383920268909,world,cf17,-1.01347124577,0.0459557324648,0.0298412144184,-0.00639134672991,0.0251596096859,-0.00723979041767,0.999636799124
1630213383920596189,0,1630213383920274636,world,cf20,2.01302623749,0.0152814779431,0.0168161969632,-0.0069424562986,0.0045498009994,0.00371219832554,0.999958659743
1630213383930781539,0,1630213383930493999,world,cf33,2.02137827873,1.03377687931,0.02156066522,-0.00275139743124,-0.00948563682613,0.0541677884092,0.998483000959
1630213383930809266,0,1630213383930518095,world,cf41,-1.05920815468,1.05893623829,0.0244857482612,0.00565537541065,-0.0220472108799,0.00180412215155,0.999739307202
1630213383930863045,0,1630213383930525009,world,cf17,-1.01345515251,0.0459589548409,0.0298830140382,-0.00719227974972,0.0254861696377,-0.00731547929208,0.999622533776
1630213383930896150,0,1630213383930531015,world,cf20,2.01303124428,0.0153007358313,0.0167939309031,-0.00688033274913,0.00388833835741,0.00318265637993,0.999963705614
1630213383940837541,0,1630213383940495315,world,cf33,2.02137231827,1.03373599052,0.0215193238109,-0.00264590587993,-0.00972132962613,0.0540703582924,0.998486299999
1630213383940863662,0,1630213383940519480,world,cf41,-1.05921518803,1.0589402914,0.0244752019644,0.00573077370504,-0.0218968518636,0.00179687244547,0.999742195449
1630213383940877701,0,1630213383940526395,world,cf17,-1.01347720623,0.0459458827972,0.0298194829375,-0.00650509360439,0.0253483655684,-0.00767921198632,0.999628017726
1630213383940903961,0,1630213383940532122,world,cf20,2.01303386688,0.0152290938422,0.0167815573514,-0.00686388556224,0.0038218488934,0.00389463175264,0.999961555456
1630213383950855270,0,1630213383950554740,world,cf33,2.02138447762,1.03376758099,0.0215165279806,-0.00239969726274,-0.00968335686817,0.0539342812095,0.998494650643
1630213383950881880,0,1630213383950580302,world,cf41,-1.05921387672,1.05896413326,0.0244545452297,0.00600860345919,-0.021749531304,0.00197882526241,0.999743436499
1630213383950905557,0,1630213383950600766,world,cf17,-1.01347231865,0.0459577441216,0.0298807993531,-0.00707337480313,0.0252632959844,-0.00735302395888,0.999628764234
1630213383950931259,0,1630213383950609217,world,cf20,2.01301670074,0.0153149031103,0.0167380645871,-0.00577666746282,0.00415126091795,0.00288082564169,0.999970548561
1630213383960794078,0,1630213383960480138,world,cf33,2.0213663578,1.03372335434,0.0214985646307,-0.00281193497422,-0.00962020530228,0.0543366063438,0.998472372118
1630213383960830815,0,1630213383960503884,world,cf41,-1.05923390388,1.05893075466,0.0244503393769,0.00560574983082,-0.0219503922284,0.00188799285446,0.999741562271
1630213383960853793,0,1630213383960510100,world,cf17,-1.01345777512,0.0459685362875,0.0298433154821,-0.00684463034888,0.0255409456185,-0.0073231932397,0.999623520118
1630213383960883266,0,1630213383960515338,world,cf20,2.013058424,0.0152695514262,0.0167669281363,-0.00662803245808,0.00419049998916,0.00353429404635,0.999963008146
1630213383970930119,0,1630213383970650961,world,cf33,2.02136230469,1.03376567364,0.0215120818466,-0.00248840687728,-0.00976012754625,0.053987220723,0.998490825066
1630213383970961269,0,1630213383970674777,world,cf41,-1.05918467045,1.05894505978,0.024476101622,0.00538730768312,-0.0219958222648,0.00195939469004,0.999741627367
1630213383970999053,0,1630213383970681272,world,cf17,-1.01347768307,0.0459324382246,0.0298278182745,-0.00664332710368,0.025242193243,-0.00738344777353,0.999632023589
1630213383971013231,0,1630213383970686440,world,cf20,2.01303887367,0.0153205012903,0.0167570598423,-0.00645746537924,0.00328775851873,0.00381586965307,0.999966464899
1630213383980656328,0,1630213383980398471,world,cf33,2.02138352394,1.03375518322,0.0214949455112,-0.00247288943545,-0.0099316353471,0.0539972757688,0.998488628702
1630213383980675604,0,1630213383980423474,world,cf41,-1.05920505524,1.05891752243,0.0244884565473,0.0054963034336,-0.0221015005312,0.00178526175124,0.999739029529
1630213383980684823,0,1630213383980430528,world,cf17,-1.01346135139,0.0459743663669,0.0299169234931,-0.00749170843399,0.0257497659088,-0.00743312824275,0.999612711236
1630213383980743910,0,1630213383980436115,world,cf20,2.01303935051,0.0153691479936,0.0167590901256,-0.00582869476967,0.0038527209807,0.00321816668765,0.999970412693
1630213383990697035,0,1630213383990425000,world,cf33,2.02134108543,1.03371071815,0.0214852280915,-0.00274192255288,-0.00978319693913,0.0542914517963,0.998473439396
1630213383990721060,0,1630213383990450213,world,cf41,-1.05920994282,1.05893945694,0.0244852714241,0.00550153470057,-0.0218941509898,0.00178446128864,0.999743564604
1630213383990745575,0,1630213383990457127,world,cf17,-1.01350343227,0.0459670498967,0.0298869721591,-0.00666804583095,0.0254067375656,-0.00777057439551,0.999624756108
1630213383990794185,0,1630213383990462924,world,cf20,2.01305294037,0.0153824109584,0.0167637784034,-0.00568521613538,0.00367799461675,0.00319838678622,0.999971960104
1630213384000419751,0,1630213384000145201,world,cf33,2.02139186859,1.03377246857,0.0215193536133,-0.00262995743705,-0.00960797366334,0.0541354501029,0.998483912343
1630213384000439586,0,1630213384000169856,world,cf41,-1.05920624733,1.05894815922,0.0244793947786,0.00557562197892,-0.0220852885896,0.00175991072719,0.999738993529
1630213384000449503,0,1630213384000176840,world,cf17,-1.01345944405,0.0459847189486,0.0298707261682,-0.00729128934749,0.0256964707535,-0.00732512289888,0.999616361943
1630213384000492736,0,1630213384000182637,world,cf20,2.01303982735,0.0153727699071,0.0167702697217,-0.00613064963954,0.00373529685202,0.00318046352989,0.999969173197
1630213384010719502,0,1630213384010475334,world,cf33,2.0213599205,1.03373301029,0.021514698863,-0.0028085248176,-0.00975735970759,0.0540677655142,0.99848564479
1630213384010738709,0,1630213384010507671,world,cf41,-1.05921256542,1.05893850327,0.0244568958879,0.00566972994282,-0.0220688736655,0.00171777133515,0.999738900033
1630213384010747159,0,1630213384010518217,world,cf17,-1.01345002651,0.0460205078125,0.0298705585301,-0.0071603336639,0.0252656944162,-0.00719571740353,0.999629229244
1630213384010820354,0,1630213384010526528,world,cf20,2.01297354698,0.0154214100912,0.0167266651988,-0.00485055324506,0.00449736639564,0.00196277508976,0.999976196388
1630213384020825442,0,1630213384020528613,world,cf33,2.02135777473,1.03370380402,0.0215159561485,-0.00279477613417,-0.00973819483401,0.0544527363657,0.998464949956
1630213384020846534,0,1630213384020553826,world,cf41,-1.059212327,1.05893814564,0.0244568623602,0.00574292284154,-0.0219264736376,0.00182450689203,0.999741426453
1630213384020877893,0,1630213384020560600,world,cf17,-1.01346874237,0.045986186713,0.0298065040261,-0.00571319780746,0.0249364559676,-0.00711840150746,0.999647368273
1630213384020899335,0,1630213384020566467,world,cf20,2.01302957535,0.015299485065,0.0167644750327,-0.00638543901101,0.00355055319283,0.0032273674989,0.999968101411
1630213384030878162,0,1630213384030598095,world,cf33,2.02136230469,1.0337086916,0.0215079449117,-0.00294777419519,-0.00967797712103,0.0543935624071,0.998468320857
1630213384030898346,0,1630213384030623098,world,cf41,-1.05920958519,1.05894041061,0.0244576800615,0.00546776211231,-0.0218370458628,0.00161550329972,0.999745286138
1630213384030919019,0,1630213384030629943,world,cf17,-1.013463974,0.0459858849645,0.0299045648426,-0.00769069888986,0.0254082141238,-0.0074214293174,0.999620026906
1630213384030931521,0,1630213384030637276,world,cf20,2.01301980019,0.0153733734041,0.0167694333941,-0.00610732798065,0.00363059504098,0.0030603676502,0.99997007629
1630213384040993390,0,1630213384040643481,world,cf33,2.0213727951,1.03374731541,0.0215104222298,-0.00274489726261,-0.00968299710832,0.0540550908734,0.998487231895
1630213384041020140,0,1630213384040672955,world,cf41,-1.05919778347,1.0589376688,0.0244490299374,0.00549378661252,-0.0223151201656,0.00195659113586,0.999733977352
1630213384041029429,0,1630213384040682942,world,cf17,-1.01346731186,0.045954592526,0.029829852283,-0.00625426328666,0.0253664611658,-0.0072494126672,0.999632368851
1630213384041073778,0,1630213384040691463,world,cf20,2.01298761368,0.015246167779,0.0168016720563,-0.00660595793824,0.00464685249842,0.00408806548663,0.999959027062
1630213384050750049,0,1630213384050461252,world,cf33,2.0213637352,1.03373515606,0.0215090978891,-0.00255764553287,-0.00969390657053,0.0540932301141,0.998485557773
1630213384050788323,0,1630213384050485907,world,cf41,-1.0592007637,1.05895161629,0.0244749598205,0.00562679525532,-0.0216700710521,0.00188882622558,0.999747557902
1630213384050809276,0,1630213384050492821,world,cf17,-1.01347911358,0.0459523834288,0.0298874899745,-0.00710218386687,0.0257437056779,-0.00774716431913,0.999613326265
1630213384050830438,0,1630213384050498688,world,cf20,2.01298832893,0.0153608359396,0.0166921876371,-0.0042808743793,0.00402699026501,0.00290368255971,0.999978512815
1630213384060740331,0,1630213384060400898,world,cf33,2.02138280869,1.0337113142,0.0214860737324,-0.00271573820795,-0.00982384179529,0.0543882389896,0.998467844429
1630213384060766242,0,1630213384060427578,world,cf41,-1.05920362473,1.05892050266,0.0244915708899,0.00550491114984,-0.0218640764807,0.00184731436518,0.999744090026
1630213384060802699,0,1630213384060434422,world,cf17,-1.01349556446,0.0459591113031,0.0298582576215,-0.00595013577044,0.0256655966706,-0.00775654723518,0.999622783357
1630213384060833570,0,1630213384060440219,world,cf20,2.01303792,0.0153000261635,0.0167484935373,-0.0061397209109,0.00402854903146,0.00392605046085,0.999965329773
1630213384070849343,0,1630213384070543994,world,cf33,2.02138566971,1.03373384476,0.0214933883399,-0.0025126295666,-0.00960538613023,0.0539604155436,0.998493713953
1630213384070887826,0,1630213384070568438,world,cf41,-1.05922114849,1.0589132309,0.0244783461094,0.00557624471353,-0.0217360804433,0.00168752768205,0.999746768213
1630213384070907801,0,1630213384070575562,world,cf17,-1.01348125935,0.0459381118417,0.0298476126045,-0.00652464405061,0.0257847987168,-0.00759554024536,0.999617367268
1630213384070956900,0,1630213384070581359,world,cf20,2.01304483414,0.0153711829334,0.0167711526155,-0.00614839018282,0.00364924302559,0.00290287014982,0.999970226391
1630213384080568916,0,1630213384080194214,world,cf33,2.02140045166,1.03374683857,0.0214802026749,-0.0025400042765,-0.00984127380872,0.054103115195,0.998483625622
1630213384080599787,0,1630213384080219217,world,cf41,-1.05920994282,1.05895483494,0.024501318112,0.00585404305035,-0.0216529476382,0.00180573210366,0.999746777624
1630213384080621019,0,1630213384080226131,world,cf17,-1.01345968246,0.0459423623979,0.0299043245614,-0.00736876251108,0.0253789145476,-0.00739152869142,0.999623417762
1630213384080632892,0,1630213384080232138,world,cf20,2.01302266121,0.0153141617775,0.0167895723134,-0.00674926032458,0.0041955668078,0.0034697382218,0.999962402104
1630213384091017641,0,1630213384090645033,world,cf33,2.02136421204,1.03372001648,0.0214939024299,-0.00255067200879,-0.0100920962748,0.0542933151666,0.998470770525
1630213384091042365,0,1630213384090666195,world,cf41,-1.05921316147,1.05893337727,0.0244870074093,0.00562043518375,-0.0219947819771,0.0016109760153,0.999740988972
1630213384091091045,0,1630213384090672900,world,cf17,-1.01347911358,0.0459660738707,0.0298682246357,-0.00654422620548,0.0255115232822,-0.00750285886725,0.999624950865
1630213384091111928,0,1630213384090678627,world,cf20,2.01304388046,0.015331861563,0.0167576912791,-0.00564839176327,0.00388019460489,0.0038156513896,0.999969239809
1630213384100805869,0,1630213384100465947,world,cf33,2.02137517929,1.03377735615,0.0215282011777,-0.00252302927491,-0.0097270796211,0.0539969812995,0.998490532882
1630213384100839533,0,1630213384100491440,world,cf41,-1.05921649933,1.05893611908,0.0244487300515,0.00578661437678,-0.0221649925447,0.00181538398471,0.999735931424
1630213384100876828,0,1630213384100498075,world,cf17,-1.01347625256,0.0459709614515,0.0298574566841,-0.00709903177318,0.0252326870125,-0.00728792680438,0.999629832176
1630213384100886187,0,1630213384100503941,world,cf20,2.01299571991,0.0153476642445,0.0167895257473,-0.00645459334076,0.00452196726456,0.00256970075991,0.999965642747
1630213384110721768,0,1630213384110405733,world,cf33,2.02135157585,1.03370606899,0.0214930158108,-0.00277098317232,-0.0100045214341,0.0544362594422,0.998463281679
1630213384110752219,0,1630213384110430038,world,cf41,-1.0592045784,1.0589389801,0.0244464296848,0.00561310597991,-0.0223937487333,0.0017589093633,0.999731923716
1630213384110792728,0,1630213384110436952,world,cf17,-1.0134806633,0.0459716916084,0.0298241153359,-0.00716153389286,0.0252289361096,-0.00771524148252,0.999626274297
1630213384110805509,0,1630213384110442889,world,cf20,2.01301670074,0.0152508635074,0.0167810823768,-0.00635093437083,0.00428161155669,0.00365745035629,0.999963977597
1630213384120849708,0,1630213384120469627,world,cf33,2.02138233185,1.03377914429,0.0215339064598,-0.0025385462107,-0.00976073272163,0.053961969686,0.998492057909
1630213384120877016,0,1630213384120494980,world,cf41,-1.059217453,1.05894994736,0.0244813840836,0.00477058483405,-0.0219831204242,0.00149762210235,0.999745838233
1630213384120936033,0,1630213384120501615,world,cf17,-1.01348555088,0.0460001118481,0.0298581086099,-0.0072219098229,0.0255271722054,-0.00761680037984,0.999619023353
1630213384120949512,0,1630213384120507412,world,cf20,2.01303887367,0.0153009844944,0.0167895760387,-0.00693654448593,0.00385039389167,0.00291257325561,0.99996428723
1630213384130770566,0,1630213384130462632,world,cf33,2.02136087418,1.03375959396,0.0215202085674,-0.00250647377714,-0.00977319935672,0.0539237926417,0.998494079477
1630213384130801855,0,1630213384130487147,world,cf41,-1.05920791626,1.05893743038,0.0244582202286,0.00516142085455,-0.0221760252064,0.00168480186847,0.99973933857
1630213384130831189,0,1630213384130493712,world,cf17,-1.0134768486,0.0459846183658,0.0298624504358,-0.00683984716836,0.0255977473262,-0.0076256873752,0.999619838096
1630213384130871907,0,1630213384130499299,world,cf20,2.01303553581,0.0152959525585,0.0167711321265,-0.00626429214091,0.00413197742761,0.00348130006625,0.999965782393
1630213384140827337,0,1630213384140484482,world,cf33,2.02134990692,1.03368353844,0.0214701443911,-0.00273474303286,-0.00993373608151,0.0542784216346,0.998472681155
1630213384140852829,0,1630213384140507739,world,cf41,-1.05919754505,1.05888462067,0.0244912020862,0.00514518194931,-0.0224284569012,0.0018723885469,0.99973345727
1630213384140885306,0,1630213384140514025,world,cf17,-1.01347494125,0.0459776967764,0.0298866815865,-0.00684273836538,0.0255733146589,-0.00740681995003,0.999622089355
1630213384140898645,0,1630213384140519473,world,cf20,2.01298189163,0.0152669679374,0.0167463384569,-0.00543193480245,0.00466907822623,0.00388122797855,0.99996681438
1630213384151084415,0,1630213384150753712,world,cf33,2.02136611938,1.03371286392,0.0214875638485,-0.00264093597981,-0.00981738668665,0.0542651324296,0.998474806782
1630213384151129253,0,1630213384150778436,world,cf41,-1.05921196938,1.05888807774,0.0244738534093,0.00520388815063,-0.0219434233266,0.00160056080699,0.999744389295
1630213384151160822,0,1630213384150785211,world,cf17,-1.01348245144,0.0459106191993,0.0298567935824,-0.00695967393059,0.0258446353751,-0.00770750779528,0.999612030782
1630213384151186873,0,1630213384150791008,world,cf20,2.01303362846,0.0152851287276,0.0167721007019,-0.00630253127585,0.00431728079044,0.00359810558973,0.999964345776
1630213384160567502,0,1630213384160221086,world,cf33,2.02140688896,1.03374242783,0.0215109027922,-0.00255862137684,-0.00964512315441,0.0540916367628,0.998486114019
1630213384160604728,0,1630213384160245391,world,cf41,-1.05916905403,1.05884253979,0.0244555138052,0.00556577123581,-0.0224494146463,0.00202113641304,0.99973044416
1630213384160622887,0,1630213384160252026,world,cf17,-1.01346576214,0.0459147542715,0.0298725198954,-0.00681832190507,0.0256661769186,-0.00745342708152,0.999619529758
1630213384160651942,0,1630213384160257823,world,cf20,2.01302647591,0.0153484577313,0.0167927853763,-0.00666503952991,0.00387181818231,0.00338498582367,0.999964563444
1630213384170716674,0,1630213384170408252,world,cf33,2.02137470245,1.03375828266,0.0215248763561,-0.00257014337972,-0.00968683490128,0.0542095627121,0.998479285165
1630213384170757462,0,1630213384170431998,world,cf41,-1.05916106701,1.05881261826,0.0244808904827,0.0054159201802,-0.0223315395911,0.0017583386546,0.999734403926
1630213384170779113,0,1630213384170438842,world,cf17,-1.01344621181,0.0459584146738,0.0299236439168,-0.00744376324343,0.0255080161003,-0.00732438212602,0.999620070292
1630213384170796853,0,1630213384170444570,world,cf20,2.01301670074,0.0153407109901,0.0167753696442,-0.00657684038686,0.00388384592254,0.00320903495462,0.999965680914
1630213384180863262,0,1630213384180508394,world,cf33,2.0213778019,1.03375160694,0.0215197168291,-0.00267057360454,-0.00979815262259,0.0542068905078,0.998478080512
1630213384180890011,0,1630213384180533258,world,cf41,-1.05920982361,1.05893170834,0.0244939140975,0.00559184292269,-0.0222004395665,0.00173932026337,0.999736388525
1630213384180926190,0,1630213384180539963,world,cf17,-1.01348805428,0.0459460765123,0.0298529397696,-0.00629060451265,0.025045451383,-0.00736957387209,0.999639356489
1630213384180958457,0,1630213384180545760,world,cf20,2.01301765442,0.0153539059684,0.0167636871338,-0.00582908409377,0.00392771458618,0.00253378828142,0.999972086987
1630213384190664271,0,1630213384190342858,world,cf33,2.02135443687,1.03371369839,0.0215034298599,-0.00275645832334,-0.00972389179285,0.0541543790388,0.99848142251
1630213384190695002,0,1630213384190367442,world,cf41,-1.05922603607,1.05895006657,0.0245118420571,0.00510186036816,-0.0218791620703,0.00133469674058,0.999746713859
