%time,field.transforms0.header.seq,field.transforms0.header.stamp,field.transforms0.header.frame_id,field.transforms0.child_frame_id,field.transforms0.transform.translation.x,field.transforms0.transform.translation.y,field.transforms0.transform.translation.z,field.transforms0.transform.rotation.x,field.transforms0.transform.rotation.y,field.transforms0.transform.rotation.z,field.transforms0.transform.rotation.w
1630203523368215917,0,1630203523367839049,world,cf33,2.00295424461,1.05012559891,0.0201434642076,-0.00188921611821,0.0027425898977,9.79495955479e-05,0.999994449719
1630203523368264946,0,1630203523367864961,world,cf41,-1.07244324684,1.0413081646,0.0225315839052,0.000489367516513,0.00143516458079,0.00439288369679,0.999989201639
1630203523378198013,0,1630203523377892943,world,cf33,2.00305771828,1.05011618137,0.0201309472322,-0.00157205531468,0.00308362681461,0.00104128176083,0.999993467789
1630203523378231677,0,1630203523377917388,world,cf41,-1.07237541676,1.04122567177,0.0224679633975,0.000221406787306,0.00202870270084,0.00470295767961,0.99998685868
1630203523388369591,0,1630203523388080725,world,cf33,2.0029733181,1.05015015602,0.0201640538871,-0.00195214872555,0.00309109499076,3.98738081007e-05,0.999993316306
1630203523388394455,0,1630203523388105449,world,cf41,-1.07237970829,1.04123568535,0.0224564354867,0.000436395731107,0.00157489570923,0.00426278546871,0.999989578907
1630203523398435289,0,1630203523398085660,world,cf33,2.00296664238,1.05017066002,0.0201466735452,-0.00165230524861,0.00260862033095,8.89323838052e-06,0.999995232443
1630203523398466159,0,1630203523398107241,world,cf41,-1.07246100903,1.04126679897,0.0223962049931,1.84000949306e-05,0.00216198227152,0.00453489188014,0.999987380045
1630203523408467462,0,1630203523408128868,world,cf33,2.00299358368,1.05013394356,0.0201244130731,-0.00159805781399,0.00365984838232,-0.000107981105278,0.999992019999
1630203523408487925,0,1630203523408153033,world,cf41,-1.07240974903,1.0412671566,0.0224389620125,0.000939503765218,0.00118896445068,0.00473356007792,0.999987648476
1630203523418424206,0,1630203523418063542,world,cf33,2.00296974182,1.05011129379,0.020104939118,-0.00200255494962,0.00289547769927,0.000488020626165,0.999993683889
1630203523418471279,0,1630203523418088545,world,cf41,-1.0724209547,1.04124093056,0.0224189162254,0.00065468930963,0.00168664725589,0.00487050773433,0.999986502288
1630203523428402321,0,1630203523428066940,world,cf33,2.00298523903,1.05013680458,0.0201179068536,-0.00197203344918,0.00329282537225,9.9727434837e-05,0.999992629193
1630203523428434728,0,1630203523428091874,world,cf41,-1.07243454456,1.04127526283,0.0224249698222,0.00107742614657,0.00151862567042,0.00481749379153,0.999986662252
1630203523438320442,0,1630203523438012439,world,cf33,2.00304222107,1.05006301403,0.0200599469244,-0.00179485893509,0.00306107915838,0.0008823703309,0.999993314827
1630203523438360043,0,1630203523438036395,world,cf41,-1.07242166996,1.0412569046,0.0224417969584,0.000191944695513,0.00143739709578,0.00462335302891,0.999988260758
1630203523448197147,0,1630203523447911354,world,cf33,2.00298094749,1.05016875267,0.0201524421573,-0.00160680421514,0.00295386954706,4.15033940628e-05,0.99999434554
1630203523448223967,0,1630203523447936497,world,cf41,-1.07242131233,1.04133796692,0.0224497169256,0.000891032043,0.00132331787068,0.00405181989282,0.999990518779
1630203523458291061,0,1630203523458025382,world,cf33,2.00304675102,1.0500524044,0.0200927723199,-0.00131575716229,0.00281145888392,0.000709780547774,0.999994930334
1630203523458313760,0,1630203523458050246,world,cf41,-1.07242584229,1.04128921032,0.0224536135793,0.000414194039829,0.00172158910845,0.00433833519771,0.999989021651
1630203523468450556,0,1630203523468136616,world,cf33,2.00297188759,1.05017578602,0.0201803538948,-0.00190806473123,0.00336381425389,0.000187750486479,0.999992504368
1630203523468492112,0,1630203523468162598,world,cf41,-1.07243132591,1.04135143757,0.0224104449153,0.000714965816397,0.00185850056071,0.00398881181013,0.999990062041
1630203523478283331,0,1630203523477968483,world,cf33,2.00301289558,1.05016136169,0.0201232116669,-0.00173754424243,0.00236753031328,0.000618825042623,0.999995496388
1630203523478310429,0,1630203523478005150,world,cf41,-1.07242596149,1.04133200645,0.0224334504455,9.3775990559e-05,0.00179654546127,0.00445977551974,0.99998843695
1630203523488336107,0,1630203523488022866,world,cf33,2.0029604435,1.05013298988,0.0201193001121,-0.00183783435661,0.0030386308043,-0.000190001707656,0.999993676474
1630203523488361180,0,1630203523488052549,world,cf41,-1.07242941856,1.0412889719,0.0224035363644,0.000253361190048,0.00205922573942,0.00412155185176,0.999989354047
1630203523498225803,0,1630203523497931558,world,cf33,2.0030465126,1.05014145374,0.0201158616692,-0.00117248854457,0.0033603126341,0.000327479702448,0.999993613143
1630203523498252413,0,1630203523497957400,world,cf41,-1.0724247694,1.0412967205,0.0224627070129,0.000323623047702,0.00158289811857,0.00449810932214,0.999988578292
1630203523508278090,0,1630203523508005288,world,cf33,2.00302743912,1.05010545254,0.0200706776232,-0.00125998446775,0.00344476318579,0.000586344229145,0.999993101099
1630203523508318948,0,1630203523508030012,world,cf41,-1.07242405415,1.04129004478,0.0224370993674,0.000882055487817,0.00149758694575,0.00419718210436,0.999989681384
1630203523518297972,0,1630203523518029220,world,cf33,2.00302958488,1.05007588863,0.0200690329075,-0.0013781731654,0.00371508241351,0.000672713000034,0.999991923097
1630203523518323115,0,1630203523518053944,world,cf41,-1.07240962982,1.0413018465,0.0224270038307,0.000554057780869,0.00160561132752,0.00440067341286,0.999988874491
1630203523528310449,0,1630203523528023329,world,cf33,2.00304341316,1.05005693436,0.0200412608683,-0.00140458821872,0.00299395921703,0.000720707462494,0.999994271944
1630203523528346348,0,1630203523528047774,world,cf41,-1.07242929935,1.04133152962,0.0224179383367,0.000404354719778,0.00168760893819,0.00406005943106,0.999990252148
1630203523538265447,0,1630203523537956117,world,cf33,2.00303435326,1.05010533333,0.0200963634998,-0.00123396948087,0.0033946210001,0.00040208391637,0.999993396076
1630203523538310356,0,1630203523537980492,world,cf41,-1.07236385345,1.04131138325,0.0224330890924,0.000847971614387,0.00122911125595,0.0044728490842,0.999988881864
1630203523548355310,0,1630203523548043465,world,cf33,2.0029759407,1.0501229763,0.0201199930161,-0.00200242692689,0.00302077183659,0.000243641047834,0.99999340291
1630203523548390440,0,1630203523548069237,world,cf41,-1.07248520851,1.04135549068,0.022401932627,0.000514273592524,0.00169392093935,0.00460159361809,0.999987845671
1630203523558227056,0,1630203523557921358,world,cf33,2.0029835701,1.05016899109,0.0201623495668,-0.00173269360073,0.00302810145922,0.000168029113642,0.999993900052
1630203523558282930,0,1630203523557946291,world,cf41,-1.0723849535,1.04126548767,0.0224141608924,0.000536838946231,0.00129510774768,0.0044584818483,0.99998907816
1630203523568486705,0,1630203523568072821,world,cf33,2.00299692154,1.05015873909,0.0201418325305,-0.00191964153129,0.00290234064371,0.00016489556777,0.999993932084
1630203523568513524,0,1630203523568097824,world,cf41,-1.07243537903,1.04136610031,0.0224397126585,0.000228081546734,0.00185356842557,0.00423186818883,0.99998930172
1630203523578264444,0,1630203523577931646,world,cf33,2.00297188759,1.05015420914,0.0201369877905,-0.00140937731259,0.00306372668701,-0.000287674627713,0.999994272222
1630203523578289796,0,1630203523577955882,world,cf41,-1.07239413261,1.04129958153,0.0224342588335,0.000619969797688,0.001755773792,0.00405420270666,0.999990048119
1630203523588248286,0,1630203523587961864,world,cf33,2.00299310684,1.05012655258,0.0201002229005,-0.00154036540942,0.00270741691366,0.000234451758147,0.999995121088
1630203523588274896,0,1630203523587977648,world,cf41,-1.07240104675,1.04127168655,0.0224478170276,0.000741120874066,0.00142633934489,0.00402300049242,0.999990615837
1630203523598417699,0,1630203523597982793,world,cf33,2.00301170349,1.05012857914,0.0201331134886,-0.00182122654444,0.00228852567574,0.000632470061906,0.999995522873
1630203523598445705,0,1630203523598005980,world,cf41,-1.07242262363,1.04130077362,0.0224218275398,0.000335422810316,0.00142103864409,0.0044364891966,0.999989092793
1630203523608309629,0,1630203523607960070,world,cf33,2.00298213959,1.05013871193,0.0201301369816,-0.00179614991624,0.00321303826441,3.77989679713e-05,0.999993224378
1630203523608336519,0,1630203523607983956,world,cf41,-1.07240509987,1.04129719734,0.0224230438471,0.000388397219014,0.00149604396831,0.00421699177632,0.999989913939
1630203523618432527,0,1630203523618120892,world,cf33,2.00296735764,1.05014562607,0.0201195012778,-0.00149079496696,0.00302726432221,-0.000369376393909,0.999994238364
1630203523618470871,0,1630203523618145128,world,cf41,-1.07243061066,1.04126513004,0.0223992578685,0.000650459725717,0.00182917190205,0.00491185299932,0.999986052269
1630203523628358052,0,1630203523628069814,world,cf33,2.00298237801,1.05015516281,0.0201474241912,-0.00174954559789,0.0030889278795,-1.64909709416e-05,0.999993698652
1630203523628384382,0,1630203523628093909,world,cf41,-1.07248365879,1.04133069515,0.0224401447922,0.000920840454354,0.00161746535456,0.00440025084107,0.99998858676
1630203523638330929,0,1630203523638008608,world,cf33,2.00296902657,1.05016124249,0.0201494116336,-0.0018961371877,0.00319081995478,4.37209030123e-06,0.999993111633
1630203523638363406,0,1630203523638044088,world,cf41,-1.07238078117,1.04125499725,0.0223951060325,0.000539154323944,0.00182272652006,0.00460816488537,0.999987575821
1630203523648340893,0,1630203523648040223,world,cf33,2.00305294991,1.0501036644,0.0200775209814,-0.00131795962177,0.00350676614979,0.000720143023699,0.999992723457
1630203523648368690,0,1630203523648064807,world,cf41,-1.07238543034,1.04133236408,0.0224040243775,0.000796217246364,0.00139896316899,0.00460770870436,0.999988088909
1630203523658239109,0,1630203523657915252,world,cf33,2.00302696228,1.05011773109,0.0200965832919,-0.00209808911866,0.00219591640767,0.000798315812506,0.99999506932
1630203523658283319,0,1630203523657939487,world,cf41,-1.07247674465,1.04138338566,0.022458454594,0.000975710075172,0.00153744574134,0.00421071715856,0.999989477
1630203523668271981,0,1630203523667999038,world,cf33,2.00307011604,1.050142169,0.0200924314559,-0.0011167456137,0.00355233779324,0.000604975838159,0.999992883865
1630203523668292863,0,1630203523668022086,world,cf41,-1.07241475582,1.04128980637,0.022425994277,9.11793171626e-05,0.00185030651164,0.00433037753561,0.99998890788
1630203523678272725,0,1630203523677988748,world,cf33,2.00306940079,1.05010998249,0.0201121717691,-0.00136969948152,0.00319057026643,0.000684423078608,0.999993737855
1630203523678306459,0,1630203523678013821,world,cf41,-1.07240760326,1.04130387306,0.0224502943456,0.000683010097047,0.00140240894651,0.00400298418799,0.999990771389
1630203523688239177,0,1630203523687949752,world,cf33,2.00297474861,1.05013024807,0.0201151296496,-0.00126178211366,0.00277524623283,0.000190719071387,0.999995334759
1630203523688264739,0,1630203523687972311,world,cf41,-1.07245004177,1.04133653641,0.0224220789969,0.000372696589232,0.00150954691931,0.00401654010631,0.999990724842
1630203523698424374,0,1630203523698108549,world,cf33,2.00296592712,1.05015957355,0.0201453231275,-0.00164217602294,0.00292358935501,-0.000120872424734,0.999994370621
1630203523698455174,0,1630203523698132854,world,cf41,-1.07244122028,1.04130995274,0.0224214699119,0.000693381861945,0.00194664515493,0.00406514004223,0.999989602161
1630203523708381258,0,1630203523708113693,world,cf33,2.00301861763,1.05010271072,0.0201020743698,-0.00100972174516,0.00400968443083,8.98978806772e-05,0.999991447369
1630203523708399556,0,1630203523708135833,world,cf41,-1.07236039639,1.04126870632,0.022442728281,0.00112250274932,0.00156797425283,0.00414988220722,0.999989529906
1630203523718725275,0,1630203523718370199,world,cf33,2.00296187401,1.05009257793,0.0200996808708,-0.0016501432695,0.00249766786877,0.000119552574419,0.999995512185
1630203523718752444,0,1630203523718412942,world,cf41,-1.07242441177,1.04129838943,0.0224231164902,0.000798763131182,0.00119908376097,0.00459944367126,0.999988384579
1630203523728372759,0,1630203523728062451,world,cf33,2.00292515755,1.0500947237,0.02008606866,-0.0017539086177,0.00312356168237,3.25056032369e-05,0.999993583035
1630203523728404467,0,1630203523728087384,world,cf41,-1.07240760326,1.04132056236,0.0223911311477,0.000764886267197,0.00164687773352,0.00428917585302,0.999989152798
1630203523738226137,0,1630203523737906330,world,cf33,2.00299930573,1.05017268658,0.0201495569199,-0.0019498510325,0.00297134413221,0.000158875116778,0.999993671957
1630203523738258683,0,1630203523737926654,world,cf41,-1.07245230675,1.04132521152,0.0224386230111,0.000706691334012,0.00158199163068,0.00450528913106,0.999988350062
1630203523748261383,0,1630203523748000663,world,cf33,2.0030579567,1.05009567738,0.0200804136693,-0.00161100426145,0.00308343843167,0.000786581497395,0.999993639161
1630203523748285758,0,1630203523748019730,world,cf41,-1.07244932652,1.04137563705,0.022424288094,0.000785562548893,0.00138247744724,0.00442165735991,0.999988960236
1630203523758279029,0,1630203523757987299,world,cf33,2.00303196907,1.05010676384,0.0200709421188,-0.00123135871935,0.00339832082501,0.000273693814937,0.99999343011
1630203523758304382,0,1630203523758012652,world,cf41,-1.07238769531,1.04128646851,0.0224139653146,0.000348319581089,0.00142685145452,0.00468799179714,0.999987932678
1630203523768277888,0,1630203523768006971,world,cf33,2.00297355652,1.05018436909,0.0201747976243,-0.00163962060869,0.00272984169901,-0.000151631667402,0.999994918295
1630203523768346891,0,1630203523768028622,world,cf41,-1.07242619991,1.04130744934,0.0224671475589,0.000226386677438,0.00149029831066,0.0043526040428,0.999989391243
1630203523778307896,0,1630203523778015188,world,cf33,2.00299620628,1.05014777184,0.0201526544988,-0.00174988778217,0.00286311182808,1.96339928282e-05,0.999994370033
1630203523778341979,0,1630203523778057652,world,cf41,-1.0724145174,1.04130673409,0.0224373042583,0.000245666834993,0.00158180439418,0.00407289023624,0.999990424508
1630203523788286360,0,1630203523787959919,world,cf33,2.00303387642,1.05010926723,0.0200857128948,-0.000965050558596,0.00319551613459,0.000373722207532,0.999994358827
1630203523788323307,0,1630203523787982548,world,cf41,-1.07243430614,1.04129600525,0.0224177725613,0.000757774213278,0.00154703236792,0.004452366798,0.999988604385
1630203523798258679,0,1630203523797926301,world,cf33,2.00297260284,1.05015027523,0.0201377086341,-0.00189122241093,0.00280676522714,0.000113787208218,0.999994266183
1630203523798290737,0,1630203523797949209,world,cf41,-1.0724105835,1.04127502441,0.0224205926061,0.00034697476774,0.0017532931295,0.00418421401678,0.999989648909
1630203523808614500,0,1630203523808329615,world,cf33,2.00299477577,1.05008304119,0.0200859308243,-0.0017036116535,0.00296188465235,0.00053891788665,0.999994017239
1630203523808641459,0,1630203523808351405,world,cf41,-1.07242596149,1.04132413864,0.0224163960665,0.000633758738005,0.00177506605379,0.00421268175221,0.999989350345
1630203523818140319,0,1630203523817877853,world,cf33,2.00303912163,1.05012500286,0.0200898163021,-0.00138021386528,0.00353847881234,0.000620865370334,0.999992594324
1630203523818169303,0,1630203523817899643,world,cf41,-1.07241666317,1.04127776623,0.0224244762212,0.000394644364191,0.00193263906111,0.00402993618748,0.999989934338
1630203523828207762,0,1630203523827924553,world,cf33,2.00297117233,1.05003488064,0.0200734417886,-0.00199965901728,0.0028329468604,0.000688134000718,0.999993751104
1630203523828241356,0,1630203523827946274,world,cf41,-1.07242369652,1.04129385948,0.0224031228572,0.000404461925167,0.00157511512871,0.0044738505737,0.999988669978
1630203523838409163,0,1630203523838041445,world,cf33,2.00299406052,1.05013036728,0.0201243981719,-0.00163939381673,0.00264647503443,-0.000115357380222,0.999995147613
1630203523838436681,0,1630203523838059254,world,cf41,-1.07240056992,1.04125893116,0.0224213413894,0.00117336830248,0.00162006669671,0.00427743372191,0.999988851014
1630203523848363323,0,1630203523848035973,world,cf33,2.00296998024,1.05012404919,0.0201037060469,-0.00174349588567,0.00302581458113,-0.000121693502114,0.999993894911
1630203523848392656,0,1630203523848058532,world,cf41,-1.07240986824,1.04129970074,0.0224128440022,0.00054138504185,0.00142090223482,0.00460964683902,0.999988219478
1630203523858265939,0,1630203523857971066,world,cf33,2.00299024582,1.0500985384,0.0201096441597,-0.00148535796919,0.00235061925897,0.000408995482748,0.999996050504
1630203523858300371,0,1630203523857993765,world,cf41,-1.07241714001,1.04134595394,0.0224214233458,0.000639164694166,0.00122007655916,0.00442615982856,0.999989255938
1630203523868234905,0,1630203523867938286,world,cf33,2.0029938221,1.05016970634,0.0201395601034,-0.00197512860504,0.00268354538814,0.000198791612929,0.999994428951
1630203523868263401,0,1630203523867959937,world,cf41,-1.07238936424,1.04128527641,0.0224026311189,0.000671657248061,0.0018273220089,0.00418188457096,0.99998936075
1630203523878272177,0,1630203523877977933,world,cf33,2.0030298233,1.05008399487,0.0200765226036,-0.00147727621767,0.00304622694074,0.00075167051316,0.999993986556
1630203523878303536,0,1630203523878001330,world,cf41,-1.07244467735,1.04132711887,0.0224270392209,0.000350457988533,0.00134706692805,0.00439497262207,0.999989373346
1630203523888186946,0,1630203523887903248,world,cf33,2.00302624702,1.05005908012,0.0200674943626,-0.00163454420694,0.0037949513172,0.000689328173915,0.99999122568
1630203523888215232,0,1630203523887922454,world,cf41,-1.07242047787,1.04127180576,0.0224414132535,0.000276035012083,0.00127612796656,0.0050633138817,0.999986328984
1630203523898181614,0,1630203523897866417,world,cf33,2.00297451019,1.0501486063,0.0201330706477,-0.00168399624539,0.003214211813,3.37186092816e-05,0.999993415909
1630203523898206128,0,1630203523897886322,world,cf41,-1.07243204117,1.0412466526,0.0224614646286,0.00045064835901,0.00184511320022,0.00447582724548,0.999988179652
1630203523908391535,0,1630203523908111189,world,cf33,2.00301218033,1.05016934872,0.0201346743852,-0.00173733487259,0.00296076897806,0.000167125194834,0.999994093774
1630203523908414862,0,1630203523908130186,world,cf41,-1.07241904736,1.04122316837,0.0224539060146,0.000480323440582,0.00208028984835,0.00469632020569,0.999986693041
1630203523918198887,0,1630203523917914630,world,cf33,2.00301575661,1.05012190342,0.0201051905751,-0.00159222220564,0.00219440733223,0.00067537590295,0.999996096629
1630203523918220049,0,1630203523917939354,world,cf41,-1.07237923145,1.04122567177,0.0223991721869,0.000579736498241,0.00156106337329,0.00488767177415,0.999986668737
1630203523928223587,0,1630203523927960841,world,cf33,2.00298595428,1.05012047291,0.0200938023627,-0.00125003597787,0.00249801745809,0.000107481583805,0.999996092876
1630203523928242724,0,1630203523927980188,world,cf41,-1.07243084908,1.04121482372,0.0223737880588,0.000345313026144,0.00155579918796,0.00503146984267,0.999986072183
1630203523938253385,0,1630203523938010754,world,cf33,2.00298762321,1.05007815361,0.0200854688883,-0.00144602612395,0.00206764947471,0.000581411636532,0.999996647892
1630203523938281951,0,1630203523938029751,world,cf41,-1.07246124744,1.04128742218,0.0224140658975,-1.25863170673e-05,0.00247024883847,0.00498966452383,0.99998450036
1630203523948462608,0,1630203523948147062,world,cf33,2.0029759407,1.05015742779,0.0201247557998,-0.00173646409888,0.00300082588255,0.000125389168064,0.999993981989
1630203523948491732,0,1630203523948165221,world,cf41,-1.07243895531,1.04126167297,0.0224138889462,0.000893848369912,0.00208872487727,0.00490263246226,0.999985401123
1630203523958241604,0,1630203523957945544,world,cf33,2.00302171707,1.05008888245,0.0200961325318,-0.00168002594757,0.00408400222731,0.000219809429875,0.999990225013
1630203523958269401,0,1630203523957968382,world,cf41,-1.07243514061,1.04130649567,0.0224127732217,0.000519266822232,0.00165848249149,0.00493764741913,0.999986299624
1630203523968418839,0,1630203523968131090,world,cf33,2.00303316116,1.05018889904,0.0201442725956,-0.00113142258598,0.00373764406322,8.17739492844e-05,0.999992371577
1630203523968438395,0,1630203523968150017,world,cf41,-1.07238793373,1.04124224186,0.0224242489785,0.000721469857077,0.00139781818401,0.00486520342609,0.999986927605
1630203523978222839,0,1630203523977925591,world,cf33,2.00295424461,1.05012655258,0.0201472118497,-0.00221912952231,0.00308998152976,9.8398665492e-05,0.999992758872
1630203523978247563,0,1630203523977945147,world,cf41,-1.07244253159,1.04121434689,0.0224879998714,0.000689676089966,0.00136690202692,0.0050664660542,0.999985993326
1630203523988377096,0,1630203523988048838,world,cf33,2.003002882,1.05015492439,0.0201077964157,-0.00178446018618,0.00283728521868,0.000231647999203,0.999994355911
1630203523988409921,0,1630203523988069442,world,cf41,-1.07239115238,1.04122948647,0.0224092639983,7.01564190405e-05,0.00171030600485,0.00476851165324,0.999987165532
1630203523998349345,0,1630203523998070535,world,cf33,2.00296401978,1.05012869835,0.0201449152082,-0.00189712976979,0.00309397925213,0.000324299202488,0.999993361488
1630203523998429104,0,1630203523998095050,world,cf41,-1.07245349884,1.04125857353,0.0224588140845,0.000501100625857,0.00147316934242,0.00500692578503,0.999986254588
1630203524008294006,0,1630203524007963583,world,cf33,2.00298571587,1.05007958412,0.0200791209936,-0.00141284913616,0.00161641610555,0.000756147937188,0.999997409645
1630203524008319777,0,1630203524007985793,world,cf41,-1.07244062424,1.04128968716,0.0224067606032,9.56867872322e-05,0.00165894626288,0.00512072812531,0.999985508337
1630203524018241321,0,1630203524017942048,world,cf33,2.00305557251,1.05003964901,0.0200216136873,-0.00113033959887,0.00285659085011,0.000942271573498,0.999994837159
1630203524018270515,0,1630203524017963909,world,cf41,-1.07246553898,1.04128420353,0.022460013628,0.000512880277569,0.00217781334192,0.0045786854273,0.999987014777
1630203524028542176,0,1630203524028129271,world,cf33,2.00302147865,1.05010616779,0.0200876928866,-0.0011895307353,0.00354803523871,0.000147398375114,0.999992987344
1630203524028562151,0,1630203524028144566,world,cf41,-1.0724016428,1.0412530899,0.0223908629268,0.000692739574778,0.00212310166316,0.00498878129105,0.999985062195
1630203524038512749,0,1630203524037972801,world,cf33,2.00301861763,1.05007255077,0.0200922209769,-0.00130905208172,0.004251302129,0.000404280543528,0.999990024635
1630203524038552629,0,1630203524038113183,world,cf41,-1.07241988182,1.04124796391,0.0224224943668,0.000619959964404,0.00185495884289,0.00475632030711,0.99998677601
1630203524048789090,0,1630203524048291885,world,cf33,2.00303077698,1.05007994175,0.0200574211776,-0.00143247298166,0.00360713695958,0.000528400482162,0.999992328659
1630203524048824011,0,1630203524048424654,world,cf41,-1.07237148285,1.04124212265,0.0224192757159,0.000685920569433,0.00160711347056,0.00469460371115,0.999987453619
1630203524058252051,0,1630203524057843056,world,cf33,2.00302457809,1.05006825924,0.0200628265738,-0.00148485631605,0.00310953325036,0.000585491344734,0.999993891584
1630203524058292769,0,1630203524057965489,world,cf41,-1.07237815857,1.0412170887,0.0223997775465,0.000750049711163,0.00137832375777,0.00458631335678,0.99998825162
1630203524068635180,0,1630203524068204464,world,cf33,2.00300621986,1.05015873909,0.0201361365616,-0.00174777048927,0.00334707418849,0.000151172092996,0.999992859744
1630203524068664374,0,1630203524068327875,world,cf41,-1.07243943214,1.04125583172,0.0224492512643,0.000206402792035,0.00181347351199,0.00446467842398,0.999988367611
1630203524078450215,0,1630203524077977943,world,cf33,2.00297355652,1.05018877983,0.0201538931578,-0.00168350453401,0.00277097263888,-3.29434365816e-05,0.999994743205
1630203524078477174,0,1630203524078092693,world,cf41,-1.07247400284,1.04136741161,0.0225015711039,0.00117069983374,0.00125849957096,0.00472420453964,0.999987363686
1630203524088023945,0,1630203524087791301,world,cf33,2.00297498703,1.05017721653,0.0201391428709,-0.00194059203322,0.0028213958104,9.05018058091e-06,0.999994136856
1630203524088130105,0,1630203524087974986,world,cf41,-1.07245445251,1.04129183292,0.0224423278123,0.000266942305144,0.00147999295418,0.00496101925428,0.999986563235
1630203524098242526,0,1630203524097890034,world,cf33,2.00305223465,1.05002784729,0.0200624968857,-0.00135061195243,0.00303479222846,0.000842962379836,0.999994127632
1630203524098304127,0,1630203524097911406,world,cf41,-1.07242703438,1.04125142097,0.0224240105599,0.000102440352191,0.00192103962924,0.00487295484646,0.999986276618
1630203524108073066,0,1630203524107843635,world,cf33,2.00303387642,1.05006670952,0.0200581196696,-0.000764292143028,0.00346881221988,0.000364874315971,0.999993625013
1630203524108298376,0,1630203524108099466,world,cf41,-1.07241535187,1.04128599167,0.0224254187196,0.000356454133739,0.00177986590654,0.00507043665293,0.99998549774
1630203524118468767,0,1630203524117825941,world,cf33,2.00298976898,1.05009114742,0.0200946219265,-0.00168132110576,0.00287279027491,0.000283992331843,0.999994419776
1630203524118520240,0,1630203524117843890,world,cf41,-1.07241690159,1.04127693176,0.0223888736218,0.000533361277685,0.00173488759493,0.00505557468834,0.999985573324
1630203524128156619,0,1630203524127857136,world,cf33,2.00297784805,1.05014514923,0.0201166216284,-0.00157422864042,0.00294997707257,-0.000130711647739,0.999994401161
1630203524128176873,0,1630203524127871524,world,cf41,-1.0724183321,1.04125761986,0.0223841946572,0.000389145638833,0.00161061183888,0.00500987203393,0.999986077742
1630203524138062169,0,1630203524137785664,world,cf33,2.0029873848,1.05015230179,0.0201378464699,-0.00161861835539,0.00284451568178,0.000214626005475,0.999994621356
1630203524138088639,0,1630203524137800052,world,cf41,-1.07242131233,1.04119837284,0.0224187150598,0.000449778719559,0.00152545167461,0.00491496645245,0.999986656812
1630203524148118926,0,1630203524147976937,world,cf33,2.00296068192,1.050137043,0.0201160907745,-0.00184955031538,0.0032850399631,-0.000251626628661,0.999992862155
1630203524148145746,0,1630203524147989788,world,cf41,-1.07240617275,1.04124546051,0.0223862398416,0.000149945204266,0.00159975164201,0.00497208907052,0.999986348228
1630203524158438429,0,1630203524158261939,world,cf33,2.00299072266,1.05019140244,0.0201603826135,-0.00197008908963,0.00296992583127,-6.29827497688e-05,0.999993647141
1630203524158454284,0,1630203524158275418,world,cf41,-1.07240045071,1.04125261307,0.0224136859179,0.000617114200894,0.00149490594564,0.00467926926457,0.999987744358
1630203524168238029,0,1630203524168038420,world,cf33,2.00295305252,1.05014276505,0.0201261118054,-0.00199346035782,0.00287766267118,-0.000117122290833,0.999993865709
1630203524168255699,0,1630203524168053436,world,cf41,-1.07240128517,1.04126131535,0.0224234052002,0.000263279790828,0.00155985758183,0.00487678110969,0.999986857181
1630203524178132543,0,1630203524177954097,world,cf33,2.00305175781,1.05006015301,0.0200581308454,-0.00124127838771,0.00276540712901,0.000822141022256,0.999995067906
1630203524178152868,0,1630203524177969043,world,cf41,-1.07237970829,1.04121661186,0.0224366560578,0.000447025437199,0.00149034255359,0.00502263058272,0.999986176019
1630203524188192095,0,1630203524188024684,world,cf33,2.00304675102,1.05011498928,0.0200733523816,-0.00110884535595,0.00327302890793,0.000822825480664,0.999993690331
1630203524188205085,0,1630203524188041376,world,cf41,-1.07239246368,1.04127418995,0.0224280450493,0.000507881738354,0.00143281821562,0.00457981219688,0.999988357136
1630203524198134102,0,1630203524197953211,world,cf33,2.00298547745,1.05014753342,0.0201624818146,-0.00192405426721,0.00324953027514,8.06529293606e-05,0.999992866006
1630203524198147372,0,1630203524197970532,world,cf41,-1.07240986824,1.04127132893,0.0224424861372,0.000388977371943,0.00190924895811,0.00394404904431,0.999990323924
1630203524208178637,0,1630203524207943479,world,cf33,2.00303149223,1.050090909,0.0200859103352,-0.00135566237987,0.00270597687261,0.000477339497364,0.999995305997
1630203524208198123,0,1630203524207962616,world,cf41,-1.07245838642,1.04134202003,0.0224089697003,0.000766614326674,0.00151338414857,0.00456812180854,0.999988127047
1630203524218091311,0,1630203524217884718,world,cf33,2.0029759407,1.05015742779,0.0201205033809,-0.00159638967215,0.00297591040752,-0.00042207329125,0.999994208659
1630203524218108143,0,1630203524217899245,world,cf41,-1.07245147228,1.04121077061,0.0223975013942,-0.000331892282141,0.00222621531781,0.00467742559641,0.999986527661
1630203524228216933,0,1630203524228024867,world,cf33,2.00300168991,1.0501447916,0.0201340410858,-0.00178106310338,0.00323232580042,0.00016406489416,0.99999317646
1630203524228241517,0,1630203524228038137,world,cf41,-1.07240867615,1.04122745991,0.022383030504,-1.566088239e-05,0.00209839645571,0.00509519883603,0.999984817603
1630203524238192255,0,1630203524238047612,world,cf33,2.00302386284,1.05013585091,0.0201288294047,-0.00127338022865,0.00420868811037,1.21757146615e-05,0.999990332603
1630203524238205525,0,1630203524238062209,world,cf41,-1.07239484787,1.04123294353,0.0224571507424,0.000743400178674,0.00154168878384,0.00462786474298,0.999987826636
1630203524248188808,0,1630203524248031943,world,cf33,2.00297260284,1.05016195774,0.0201623253524,-0.00209077754113,0.00341000157986,-0.000239926904005,0.999991971455
1630203524248199983,0,1630203524248046191,world,cf41,-1.07238733768,1.04124200344,0.0224257782102,0.00098562056722,0.00205399287249,0.00473472440901,0.99998619593
1630203524258210156,0,1630203524258019557,world,cf33,2.00296568871,1.0501781702,0.0201642941684,-0.00160008292992,0.0032320564396,-0.000385683953069,0.999993422375
1630203524258229013,0,1630203524258034015,world,cf41,-1.07243359089,1.04126298428,0.0224233791232,0.000407133909017,0.00198356079708,0.00458164686096,0.999987454042
1630203524268153001,0,1630203524267966733,world,cf33,2.00303173065,1.05013346672,0.0200907979161,-0.00129633176079,0.00369122392717,0.000430469053277,0.999992254513
1630203524268165852,0,1630203524267981050,world,cf41,-1.07239067554,1.04122364521,0.0224217548966,0.00041435909847,0.00172347158919,0.00480143593385,0.999986901997
1630203524278166038,0,1630203524277940099,world,cf33,2.00299501419,1.05013203621,0.0200776532292,-0.00144736156441,0.00190442558642,0.000459929788926,0.999997033382
1630203524278177981,0,1630203524277953788,world,cf41,-1.07241654396,1.04125916958,0.0224018786103,-0.000206736239137,0.00196262800701,0.00515731942704,0.999984753588
1630203524288232643,0,1630203524288003911,world,cf33,2.0029733181,1.05013680458,0.0200972612947,-0.00179509765309,0.00259523263856,-2.56670489581e-05,0.999995020854
1630203524288266028,0,1630203524288014457,world,cf41,-1.07245588303,1.04132771492,0.0223870947957,0.000305621802473,0.00205487365485,0.00466453617651,0.999986963011
1630203524298089583,0,1630203524297858895,world,cf33,2.00300002098,1.05012798309,0.0201039761305,-0.00191633700438,0.00259034374686,0.000407450733329,0.999994725864
1630203524298120663,0,1630203524297872654,world,cf41,-1.0723849535,1.04127788544,0.0223805718124,9.67655547622e-06,0.00134165506866,0.0052303449612,0.999985421574
1630203524308150391,0,1630203524307949177,world,cf33,2.00303077698,1.05008876324,0.0200708862394,-0.00146391182338,0.003371474981,0.000766015600093,0.999992951645
1630203524308169528,0,1630203524307963145,world,cf41,-1.07241940498,1.04131400585,0.0224226750433,0.000353407092904,0.00179864330189,0.00496113543351,0.999986013463
1630203524318121313,0,1630203524317880568,world,cf33,2.0030362606,1.05009496212,0.0200867205858,-0.0013395787532,0.0034300435415,0.00041449826211,0.999993134237
1630203524318143663,0,1630203524317895095,world,cf41,-1.07239639759,1.04124712944,0.0224562492222,0.000645586887881,0.00139351122814,0.00449892936485,0.999988700425
1630203524328093143,0,1630203524327864620,world,cf33,2.00304508209,1.05010700226,0.0201055109501,-0.00111909652362,0.00376949782924,0.000409083583865,0.999992185549
1630203524328137982,0,1630203524327878798,world,cf41,-1.07240724564,1.04122269154,0.0224338211119,0.000429683472114,0.00146584163066,0.0044321579838,0.999989011268
1630203524338053449,0,1630203524337870952,world,cf33,2.00297999382,1.0501511097,0.0201077237725,-0.0012918230177,0.00232841451748,-0.000146294597728,0.999996444132
1630203524338095913,0,1630203524337884012,world,cf41,-1.07238042355,1.041228652,0.0224109143019,0.000668391925299,0.00123198026009,0.00466752651174,0.999988124766
1630203524348218811,0,1630203524347967380,world,cf33,2.00297641754,1.05014932156,0.0201593525708,-0.00156783130098,0.00323647943726,0.000111182150218,0.999993527351
1630203524348251846,0,1630203524347981488,world,cf41,-1.07244741917,1.0413005352,0.0224244650453,0.000814480380563,0.00163717141759,0.00446825347288,0.999988345433
1630203524358077566,0,1630203524357842897,world,cf33,2.00296187401,1.05014276505,0.0201363526285,-0.00178402084259,0.0028858057414,-8.46738931775e-05,0.999994241096
1630203524358099636,0,1630203524357859520,world,cf41,-1.07241857052,1.04128813744,0.0223841778934,0.000867679853156,0.00142149700594,0.00482528668724,0.999986971458
1630203524368270446,0,1630203524368054076,world,cf33,2.00304436684,1.05016493797,0.0201132837683,-0.00134792249612,0.00184122183183,0.00070837256968,0.999997145604
1630203524368310535,0,1630203524368067485,world,cf41,-1.07243907452,1.0413172245,0.0224283058196,0.00072069255408,0.00128624132164,0.00489540576516,0.999986930509
1630203524378065645,0,1630203524377804087,world,cf33,2.00303173065,1.05009067059,0.0200669541955,-0.00155524953236,0.00323656405028,0.000702564242566,0.999993306105
1630203524378099170,0,1630203524377816309,world,cf41,-1.07243382931,1.04130101204,0.0224213954061,0.000461997040337,0.00216316880036,0.00433304079514,0.999988165938
1630203524388227934,0,1630203524387974408,world,cf33,2.00304174423,1.05008947849,0.020077554509,-0.00180766976514,0.0035762754376,0.000791094617491,0.999991658342
1630203524388244626,0,1630203524387987887,world,cf41,-1.07239472866,1.04126751423,0.0223904270679,0.000244075967299,0.00169375419953,0.00497564153976,0.999986157212
1630203524398150036,0,1630203524397923539,world,cf33,2.00298643112,1.0501434803,0.0201112534851,-0.002279719773,0.00308049582482,0.000491196806959,0.999992536047
1630203524398167707,0,1630203524397937368,world,cf41,-1.07243132591,1.04129850864,0.0224146973342,0.000501980885602,0.00188268265938,0.00438439889937,0.999988490218
1630203524408105803,0,1630203524407930848,world,cf33,2.00305438042,1.05009162426,0.0200805533677,-0.00119216522323,0.00373793986051,0.000723747149612,0.999992041337
1630203524408125638,0,1630203524407944677,world,cf41,-1.07238149643,1.04129910469,0.0224165506661,0.000163657983293,0.00152358540469,0.00424746143641,0.999989805435
1630203524418227723,0,1630203524418055004,world,cf33,2.00303840637,1.05007791519,0.0201079528779,-0.00121909597817,0.00375532069227,0.000448980734755,0.999992104863
1630203524418238339,0,1630203524418068902,world,cf41,-1.07243514061,1.04126930237,0.0224141348153,0.000279528235826,0.00167234626994,0.00461672621363,0.999987905407
1630203524428229585,0,1630203524428011608,world,cf33,2.00303649902,1.05012750626,0.0201069526374,-0.00131653618514,0.0034989804555,0.000374603104994,0.999992941745
1630203524428241528,0,1630203524428024948,world,cf41,-1.07240533829,1.04128456116,0.0224402546883,0.000590732915297,0.00144223021964,0.00417587961226,0.999990066469
1630203524438162931,0,1630203524437954244,world,cf33,2.00299048424,1.05017745495,0.0201584268361,-0.00155504956803,0.00281741238885,6.0881106387e-05,0.999994820137
1630203524438195338,0,1630203524437967514,world,cf41,-1.07242751122,1.04127109051,0.0224237907678,0.000548206336353,0.00150279889324,0.00446551625943,0.999988750052
1630203524448126171,0,1630203524447881514,world,cf33,2.00298690796,1.05012047291,0.020116660744,-0.00117532930779,0.00263805870503,-0.000167510630284,0.999995815585
1630203524448143771,0,1630203524447901489,world,cf41,-1.07241463661,1.04126548767,0.0223992262036,0.000415255173571,0.00189626730709,0.00446513624887,0.999988147076
1630203524458116997,0,1630203524457851039,world,cf33,2.00300478935,1.05017232895,0.020122596994,-0.00149190064419,0.00278938327788,0.00012132719666,0.999994989414
1630203524458135994,0,1630203524457867871,world,cf41,-1.07242667675,1.04126417637,0.0224286057055,0.000760822270968,0.00193584618523,0.00444301593298,0.999987966557
1630203524468179761,0,1630203524467967232,world,cf33,2.00304436684,1.05010080338,0.0200793482363,-0.00154554237879,0.00325660522559,0.000777323028457,0.999993200772
1630203524468203368,0,1630203524467984134,world,cf41,-1.07241845131,1.04132521152,0.0223697833717,0.000407913319734,0.00155220971742,0.00431874299525,0.999989386299
1630203524478138950,0,1630203524477866287,world,cf33,2.00299549103,1.05020463467,0.0201354399323,-0.00187321264575,0.002938746028,-3.5241079104e-05,0.999993926784
1630203524478162906,0,1630203524477884376,world,cf41,-1.07240259647,1.04132664204,0.022347137332,0.000522142000084,0.00152891727352,0.00476696123052,0.99998733285
1630203524488240406,0,1630203524487986880,world,cf33,2.00294232368,1.05019068718,0.0201400518417,-0.00148510826889,0.00335333377073,-0.0007169415415,0.999993017776
1630203524488261010,0,1630203524488000429,world,cf41,-1.0723965168,1.04134488106,0.0223973728716,0.000280515704848,0.0013491039016,0.00453702743592,0.999988758243
1630203524498149867,0,1630203524497930912,world,cf33,2.00303697586,1.05011379719,0.0200953390449,-0.00150072282284,0.00348855947864,0.000372151724582,0.999992719617
1630203524498165582,0,1630203524497946697,world,cf41,-1.07243728638,1.0413775444,0.0224644374102,0.00114981326553,0.00142749069283,0.00408890041167,0.999989960496
1630203524508137132,0,1630203524507859859,world,cf33,2.00296354294,1.05013585091,0.020157976076,-0.00189431386772,0.00302225727957,7.61403654306e-05,0.999993635849
1630203524508159761,0,1630203524507872431,world,cf41,-1.07242023945,1.04125165939,0.0224720612168,0.00064323681193,0.00139882465685,0.00413865839496,0.999990250474
1630203524518180061,0,1630203524517960059,world,cf33,2.00299739838,1.050116539,0.0201236438006,-0.00130305767391,0.00349507323765,1.60087550252e-05,0.9999930431
1630203524518195077,0,1630203524517971862,world,cf41,-1.07239019871,1.0412312746,0.0224364418536,0.000251320131487,0.0021065093956,0.00407524312103,0.999989445869
1630203524528203713,0,1630203524527964784,world,cf33,2.00298023224,1.05011475086,0.020123206079,-0.0016076068584,0.00253426838047,0.000295387721446,0.999995452905
1630203524528215377,0,1630203524527977356,world,cf41,-1.07234811783,1.04124557972,0.0224838387221,0.000872306216807,0.00156616730668,0.00378825065373,0.999991217641
1630203524538116108,0,1630203524537862581,world,cf33,2.00302004814,1.05014002323,0.0201360918581,-0.0015938576168,0.00233816932032,0.000619967744507,0.999995804102
1630203524538133219,0,1630203524537876131,world,cf41,-1.07246243954,1.04127299786,0.0224440041929,0.000507732845419,0.00165994381286,0.00488259356347,0.999986573447
1630203524548102255,0,1630203524547862138,world,cf33,2.00304365158,1.05009460449,0.0200785733759,-0.00146615398579,0.00344880270109,0.000535406340087,0.999992834721
1630203524548118668,0,1630203524547875897,world,cf41,-1.07243680954,1.04123485088,0.0223730504513,0.000581348959468,0.00158650289533,0.00502627439792,0.999985940705
1630203524558174029,0,1630203524557903531,world,cf33,2.00303030014,1.05013716221,0.020083013922,-0.00162140627349,0.00361948083559,0.000385580667188,0.999992060832
1630203524558185483,0,1630203524557917220,world,cf41,-1.07244360447,1.04125964642,0.0223620422184,0.00018253066399,0.00189446013347,0.00501517241707,0.999985612771
1630203524568130493,0,1630203524567845678,world,cf33,2.00297355652,1.05018591881,0.0201527420431,-0.00216579711477,0.00322132037705,-2.2880967116e-05,0.999992465919
1630203524568143484,0,1630203524567863976,world,cf41,-1.07244694233,1.04133486748,0.0224104020745,0.000589287311666,0.00161265627237,0.00505544008728,0.999985747201
1630203524578260934,0,1630203524577931978,world,cf33,2.00298428535,1.05012762547,0.0201251599938,-0.00195026775019,0.00298367005643,2.12015843972e-05,0.999993646839
1630203524578288801,0,1630203524577950696,world,cf41,-1.0724016428,1.04125583172,0.0223774481565,0.000482071114457,0.00144216631014,0.00521604029859,0.999985240235
1630203524588200497,0,1630203524587912119,world,cf33,2.0029900074,1.05014955997,0.0201320871711,-0.00192359163789,0.00311746617885,9.64388330008e-05,0.999993285927
1630203524588212300,0,1630203524587928113,world,cf41,-1.07242643833,1.04130136967,0.0224082898349,6.11066273644e-05,0.00180268576876,0.0047576296594,0.999987055691
1630203524598184339,0,1630203524597913981,world,cf33,2.00304317474,1.05007338524,0.0200804937631,-0.00128697557707,0.00344339013988,0.000556621061677,0.999993088442
1630203524598195863,0,1630203524597927600,world,cf41,-1.0724234581,1.04124641418,0.0224546249956,0.000231380274884,0.00207436369585,0.00500354882415,0.999985303881
1630203524608142899,0,1630203524607886230,world,cf33,2.00303244591,1.05015063286,0.020098393783,-0.00094969564826,0.00368660083079,0.000411741464675,0.999992668734
1630203524608157915,0,1630203524607900408,world,cf41,-1.0724234581,1.04124093056,0.0224635694176,0.000732790460787,0.0020106865967,0.00497039464149,0.99998535756
1630203524618106697,0,1630203524617856593,world,cf33,2.00304245949,1.05012452602,0.0201022271067,-0.000946262683987,0.00336807735983,0.000378206142329,0.999993808782
1630203524618118780,0,1630203524617870631,world,cf41,-1.07241785526,1.04122698307,0.0224190056324,-0.000202742041805,0.00184070284346,0.00464767451309,0.999987484837
1630203524628387927,0,1630203524628067492,world,cf33,2.00303173065,1.05009961128,0.0201038103551,-0.00153546643291,0.00281757936071,0.000719168876095,0.999994593178
1630203524628416353,0,1630203524628082019,world,cf41,-1.07239842415,1.04123163223,0.0223962068558,-0.000308013003404,0.00192691960021,0.00473055206354,0.999986906907
1630203524638198701,0,1630203524637943987,world,cf33,2.00298786163,1.05016577244,0.0201570484787,-0.00162900812135,0.00276578501336,0.000193953720767,0.999994829561
1630203524638210574,0,1630203524637957467,world,cf41,-1.07243251801,1.04123222828,0.0224294085056,0.000438901311255,0.0013110777558,0.00484253426759,0.999987319071
1630203524648178563,0,1630203524647929366,world,cf33,2.00297641754,1.05018353462,0.0201624110341,-0.0017006565591,0.00353356580967,-0.000231390769059,0.999992284039
1630203524648190715,0,1630203524647942986,world,cf41,-1.07241976261,1.04125487804,0.0224180240184,0.000633360077856,0.00126799234238,0.00496402721767,0.999986674653
1630203524658169459,0,1630203524657908110,world,cf33,2.00295829773,1.05017876625,0.0201754514128,-0.00183283101971,0.00353313088249,-0.000430543487979,0.999991986142
1630203524658181612,0,1630203524657929762,world,cf41,-1.07242834568,1.0412478447,0.0224114097655,0.000505870384904,0.00135522895134,0.00482601488185,0.999987308434
1630203524668306745,0,1630203524668043440,world,cf33,2.00300168991,1.050137043,0.0201244596392,-0.00170702031522,0.00260879376185,0.000274230927077,0.999995102525
1630203524668318757,0,1630203524668056780,world,cf41,-1.07243716717,1.04129087925,0.0224066954106,0.000460096959175,0.00128457777883,0.00484888958418,0.99998731314
1630203524678295057,0,1630203524678049213,world,cf33,2.00298571587,1.05013871193,0.020085837692,-0.00179710748275,0.00252568740663,0.000286377030102,0.999995154636
1630203524678313705,0,1630203524678062902,world,cf41,-1.07240843773,1.04129123688,0.0223992485553,0.000368679664681,0.00159947502017,0.00495113099411,0.999986395936
1630203524688141940,0,1630203524687886667,world,cf33,2.00305867195,1.05005955696,0.0200296174735,-0.00146614007532,0.00347687243825,0.000982338822715,0.999992398372
1630203524688154232,0,1630203524687900007,world,cf41,-1.07245993614,1.04133200645,0.0224246550351,0.000120639893023,0.00185636066107,0.00471297501714,0.999987163536
1630203524698132138,0,1630203524697865272,world,cf33,2.00303530693,1.05011701584,0.0200866684318,-0.00150850594216,0.00258894807697,0.000707552381302,0.999995260552
1630203524698143662,0,1630203524697878751,world,cf41,-1.07243669033,1.04127442837,0.0224029570818,2.44351835181e-05,0.00181845822785,0.00496753964611,0.999986007983
1630203524708239671,0,1630203524707930899,world,cf33,2.00298380852,1.0501087904,0.0201190412045,-0.0017475336613,0.00290869429554,0.00055459618472,0.999994089006
1630203524708262369,0,1630203524707943750,world,cf41,-1.07239377499,1.04125273228,0.022421548143,-9.68295497185e-05,0.00175581429801,0.0047727585693,0.999987064174
1630203524718283228,0,1630203524718020622,world,cf33,2.00297427177,1.05014586449,0.0201312657446,-0.00204662282525,0.00300158470616,-0.000104273445073,0.999993395454
1630203524718297336,0,1630203524718033892,world,cf41,-1.07236301899,1.04130172729,0.0224184710532,0.000691395953896,0.00210575317782,0.0040076654547,0.999989513141
1630203524728070745,0,1630203524727840615,world,cf33,2.00298190117,1.05005896091,0.0201000887901,-0.00160714480529,0.00263064256902,0.000815307357918,0.999994916027
1630203524728096586,0,1630203524727854304,world,cf41,-1.07241928577,1.04127693176,0.0224086754024,0.000541611216397,0.00136281035452,0.00414659588267,0.999990327527
1630203524738337447,0,1630203524738044949,world,cf33,2.00296902657,1.05015897751,0.0201644618064,-0.00167509205538,0.00289180901952,-0.000102776431506,0.999994410456
1630203524738362032,0,1630203524738059895,world,cf41,-1.07240045071,1.04129290581,0.0224717985839,0.000933363375421,0.00135401354355,0.00380789970157,0.999991397653
1630203524748299639,0,1630203524747977178,world,cf33,2.00305366516,1.05009901524,0.0201144125313,-0.00155253130195,0.00322897856803,0.000763933950245,0.999993289852
1630203524748323106,0,1630203524747992893,world,cf41,-1.07242131233,1.04129076004,0.0223998427391,0.000738293105133,0.0012974955572,0.00435843876313,0.999989387664
1630203524758300313,0,1630203524758053073,world,cf33,2.00302481651,1.05010521412,0.0200677905232,-0.00126330265755,0.00363313506475,0.000433788613658,0.999992508084
1630203524758319799,0,1630203524758067041,world,cf41,-1.07242226601,1.04132592678,0.0224447045475,0.000612712512458,0.00149044787635,0.00431950429167,0.999989372459
1630203524768759850,0,1630203524768444304,world,cf33,2.00299525261,1.05010855198,0.0201107282192,-0.00172464488856,0.00320027973561,0.000211499075393,0.999993369517
1630203524768789952,0,1630203524768466793,world,cf41,-1.07242369652,1.04128324986,0.0224161949009,0.00044555450532,0.00158930700347,0.00475781045598,0.999987319332
1630203524778210309,0,1630203524777921582,world,cf33,2.00297570229,1.05017769337,0.0201451033354,-0.00180047643988,0.00298891586205,5.46108125758e-05,0.999993910824
1630203524778229376,0,1630203524777936179,world,cf41,-1.07245373726,1.04128217697,0.0224203709513,0.000529930407907,0.00169479650621,0.00466292495509,0.999987551907
1630203524788362680,0,1630203524788067039,world,cf33,2.00299954414,1.05011403561,0.0200986210257,-0.00193938714706,0.00215397445872,0.000576564451126,0.999995633363
1630203524788388243,0,1630203524788082055,world,cf41,-1.07244336605,1.04127645493,0.0223801378161,0.00030997998717,0.0018737010414,0.00458484386976,0.999987686106
1630203524798254820,0,1630203524797958830,world,cf33,2.00299572945,1.05006182194,0.0200740508735,-0.00177898673543,0.00251119159777,0.000586403696826,0.999995092615
1630203524798266554,0,1630203524797974824,world,cf41,-1.07239735126,1.04131901264,0.0223845727742,0.000344341281655,0.00177713651765,0.00424298377112,0.999989360095
1630203524807992261,0,1630203524807678530,world,cf33,2.00299906731,1.05012691021,0.020109532401,-0.00150243320039,0.0020240107426,0.000578063187338,0.999996655953
1630203524808008464,0,1630203524807701858,world,cf41,-1.07241916656,1.04131090641,0.0223813354969,0.000305895539248,0.00182197458903,0.00455244105202,0.999987930986
1630203524818246880,0,1630203524817980363,world,cf33,2.00302219391,1.0500985384,0.0201024916023,-0.00156758343714,0.00271009774097,0.000549743309096,0.999994947905
1630203524818274259,0,1630203524817998243,world,cf41,-1.07243931293,1.04131495953,0.0223798118532,0.000303209904866,0.00173530355125,0.00531490752564,0.999984324149
1630203524828177364,0,1630203524827890313,world,cf33,2.0030374527,1.05010521412,0.0201162062585,-0.00112232984723,0.00376409407792,0.000271299795105,0.999992249154
1630203524828213682,0,1630203524827908961,world,cf41,-1.07242631912,1.0413005352,0.0224347375333,0.000589403324698,0.00152679765822,0.00520774862565,0.999985100312
1630203524838457057,0,1630203524837989046,world,cf33,2.00296354294,1.0501074791,0.0201324839145,-0.00163117131699,0.00294117977121,0.000157577042979,0.99999433194
1630203524838487718,0,1630203524838004271,world,cf41,-1.07244431973,1.04125463963,0.0224339812994,0.000278200195495,0.00164782277984,0.00499972650904,0.999986104913
1630203524848277050,0,1630203524847962692,world,cf33,2.00298762321,1.05012142658,0.020130680874,-0.00152611096618,0.00300943417808,-2.07955260177e-05,0.999994306913
1630203524848310994,0,1630203524847982108,world,cf41,-1.07240927219,1.04124188423,0.0224434547126,0.000655766395416,0.00141271085943,0.00485607511215,0.999986996292
1630203524858173870,0,1630203524857787225,world,cf33,2.00299239159,1.05016314983,0.0201460421085,-0.00162732682304,0.00239433953021,0.000454227788322,0.999995706302
1630203524858198454,0,1630203524857802660,world,cf41,-1.07243299484,1.04124760628,0.022443793714,0.000189790177428,0.00184870448585,0.00457312900615,0.999987816307
1630203524868207929,0,1630203524867942320,world,cf33,2.00306534767,1.05005276203,0.0200645942241,-0.00137600931361,0.00282665877648,0.00114974833578,0.999994397323
1630203524868224691,0,1630203524867962364,world,cf41,-1.07242906094,1.04121744633,0.0224413629621,0.000194627992973,0.00175335046538,0.00469739449944,0.999987411104
1630203524878275721,0,1630203524878015141,world,cf33,2.00299429893,1.05012464523,0.0201046261936,-0.00192402695998,0.00240339009028,0.000573151444828,0.999995096655
1630203524878299188,0,1630203524878036233,world,cf41,-1.07243490219,1.04130005836,0.0224086362869,4.33947983556e-06,0.00222526678711,0.00468758823329,0.999986537252
1630203524888123023,0,1630203524887828848,world,cf33,2.00297474861,1.0501074791,0.0200691707432,-0.00177564402409,0.00219369423945,0.000506808574698,0.999995888961
1630203524888148655,0,1630203524887847985,world,cf41,-1.07244968414,1.04130780697,0.0223873797804,-0.000422043519605,0.0015319039721,0.00494248836149,0.999986523388
1630203524898147513,0,1630203524897920876,world,cf33,2.00305271149,1.05010676384,0.0200818702579,-0.00136517419195,0.00336622889599,0.000626074151033,0.999993206394
1630203524898173565,0,1630203524897942038,world,cf41,-1.07242751122,1.0412735939,0.0223784297705,8.10210908637e-05,0.00149379914253,0.00484997636709,0.999987119782
1630203524908281027,0,1630203524907978332,world,cf33,2.00301623344,1.05005717278,0.0200638901442,-0.00127474518094,0.00334695834666,0.000674664375239,0.999993358839
1630203524908305263,0,1630203524907999634,world,cf41,-1.07240343094,1.04127645493,0.0224364697933,0.000883393458366,0.00185560377494,0.00490120427523,0.999985877174
1630203524918369214,0,1630203524918062887,world,cf33,2.00295734406,1.05017864704,0.0201633255929,-0.00196086123835,0.00335183386067,-0.000292757580449,0.999992417234
1630203524918429557,0,1630203524918087262,world,cf41,-1.07234835625,1.04122543335,0.0223266668618,0.000495266808847,0.00162057031167,0.00591943179296,0.999981044215
1630203524928403692,0,1630203524928104000,world,cf33,2.00306010246,1.05011892319,0.0201880019158,-0.00268069253438,0.00204193168823,0.000606269039454,0.999994138403
1630203524928432816,0,1630203524928129073,world,cf41,-1.07224428654,1.0412478447,0.0224126316607,0.0016449054597,0.00163349442961,0.00669094515689,0.999974928303
1630203524938317343,0,1630203524937987899,world,cf33,2.00300860405,1.05003964901,0.020114114508,-0.00190773497786,0.00299824419141,0.00100005206554,0.999993185464
1630203524938343255,0,1630203524938013531,world,cf41,-1.07225501537,1.0411875248,0.022405365482,6.17371273257e-07,0.00173439462765,0.0070276932854,0.999973801358
1630203524948336875,0,1630203524947999818,world,cf33,2.00299906731,1.05014240742,0.0201802179217,-0.00236678540654,0.00247299319926,0.000903187661575,0.999993733422
1630203524948373961,0,1630203524948025031,world,cf41,-1.07220339775,1.0411734581,0.0224578548223,0.0014240945304,0.0019642039923,0.00685159109643,0.99997358443
1630203524958296203,0,1630203524957989806,world,cf33,2.00297427177,1.05015194416,0.0201308336109,-0.00163675899949,0.00300452037927,0.000110153812632,0.999994140855
1630203524958321277,0,1630203524958011527,world,cf41,-1.0722976923,1.04118025303,0.0224750451744,0.000175539781136,0.00176597909092,0.00530081796988,0.999984375794
1630203524968294154,0,1630203524968045656,world,cf33,2.00305700302,1.05012965202,0.0201050080359,-0.00117265152938,0.00373140138086,0.000670593635145,0.999992125887
1630203524968310008,0,1630203524968065561,world,cf41,-1.07196712494,1.04115200043,0.0224656742066,0.000456910817741,0.00140718290575,0.00659150590181,0.999977181299
1630203524978206688,0,1630203524977908812,world,cf33,2.00300550461,1.05036401749,0.0202411022037,-0.00162598772731,0.00310766306123,0.000428157487097,0.999993757618
1630203524978235044,0,1630203524977927879,world,cf41,-1.07184612751,1.04113090038,0.0224850755185,-0.000213900643683,0.000731213382834,0.00612571336099,0.999980947423
1630203524988234950,0,1630203524987932534,world,cf33,2.00306916237,1.05051338673,0.0204281583428,-0.00250401400832,0.00335010638628,0.00118737170243,0.99999054838
1630203524988276715,0,1630203524987952649,world,cf41,-1.07148206234,1.04126954079,0.0226185210049,-0.00299424609791,0.00153769937676,0.00489338722755,0.999982362211
1630203524998428528,0,1630203524998050334,world,cf33,2.00307798386,1.05053043365,0.0205466859043,-0.00266623643177,0.00725348125117,0.00106989955797,0.999969566291
1630203524998451366,0,1630203524998075407,world,cf41,-1.07108438015,1.04162657261,0.0227434411645,0.000794594022048,0.00234310917099,0.00134674556312,0.99999603236
1630203525008372002,0,1630203525008067002,world,cf33,2.00315618515,1.05074679852,0.0208931453526,-0.00290931408742,0.0102941206428,0.00086160113763,0.999942410649
1630203525008395469,0,1630203525008086977,world,cf41,-1.07055735588,1.04149472713,0.0228458140045,-0.00135968648208,0.00443993041128,0.00335107183417,0.99998360416
1630203525018321901,0,1630203525018022419,world,cf33,2.00329637527,1.05118596554,0.0213886685669,-0.00251448131194,0.0126035204171,-0.000406064791649,0.999917328467
1630203525018336568,0,1630203525018047771,world,cf41,-1.07009744644,1.04180121422,0.0230042412877,-0.000542114136209,0.0040947338315,0.00256024113217,0.999988192147
1630203525028364411,0,1630203525028079735,world,cf33,2.00357317924,1.0507671833,0.0216313060373,-0.00396094133683,0.00882282454825,0.00374846847954,0.999946207401
1630203525028402056,0,1630203525028099780,world,cf41,-1.06985974312,1.04230093956,0.0233901403844,-0.000613089997479,0.00516308050245,-0.00143602780846,0.999985452166
1630203525038303625,0,1630203525038012663,world,cf33,2.00367641449,1.05119776726,0.0220921318978,0.00269687028349,0.00742559346581,0.000683288827114,0.99996855979
1630203525038329746,0,1630203525038032428,world,cf41,-1.0693397522,1.04221117496,0.0231799650937,0.00695077696961,0.000261078877659,-0.00391036362119,0.99996816329
1630203525048390065,0,1630203525048076195,world,cf33,2.00402569771,1.05203092098,0.0229923799634,0.0082121958947,0.00720791395258,-0.00597042324458,0.999922476926
1630203525048417304,0,1630203525048095332,world,cf41,-1.06882452965,1.0424066782,0.0234906226397,0.00309741660629,0.000602497487579,-0.00602426381101,0.999976875359
1630203525058539224,0,1630203525058232967,world,cf33,2.00478434563,1.05212581158,0.0239060427994,0.00256016102952,-0.00416742633747,0.00270738845882,0.999984373968
1630203525058564995,0,1630203525058252243,world,cf41,-1.06762731075,1.04291892052,0.0237866323441,0.00678519613064,-0.00567011990674,-0.00333653058469,0.999955338211
1630203525068369204,0,1630203525068075449,world,cf33,2.00515055656,1.05250144005,0.0246328525245,0.00457372289748,-0.00911722530834,-0.00373415747119,0.999941004925
1630203525068397211,0,1630203525068091792,world,cf41,-1.0668002367,1.0431497097,0.0237908326089,0.00748766911744,-0.00369880627641,-0.00351969245632,0.999958931861
1630203525078298431,0,1630203525078068790,world,cf33,2.00593519211,1.05244445801,0.0253854840994,0.00219701785942,-0.0202166081093,0.00523441975341,0.999779507051
1630203525078328113,0,1630203525078087438,world,cf41,-1.0665807724,1.04351770878,0.024207437411,0.00853281669647,-0.00261636758236,-0.00892672610569,0.999920326437
1630203525088323969,0,1630203525088060944,world,cf33,2.00631427765,1.05299460888,0.0263380799443,0.00404212027376,-0.024113137806,-0.000195560297229,0.999701045115
1630203525088351975,0,1630203525088077217,world,cf41,-1.06571090221,1.04347658157,0.0247644297779,0.00579361938118,-0.019323425187,-0.00940373996804,0.99975227376
1630203525098351253,0,1630203525098079498,world,cf33,2.00710296631,1.05318307877,0.0271991025656,-0.000142619625071,-0.0321612283823,-0.00161389121904,0.999481380719
1630203525098426892,0,1630203525098103663,world,cf41,-1.06503081322,1.04309689999,0.024933738634,0.00231194235086,-0.0270209828189,-0.00669889370524,0.999609746968
1630203525108293470,0,1630203525108028280,world,cf33,2.00747728348,1.05393135548,0.0278622657061,0.00112297580909,-0.0356061114027,0.000414506143094,0.999365184475
1630203525108309324,0,1630203525108044763,world,cf41,-1.0644313097,1.04393863678,0.0255454741418,0.00633884997706,-0.038227579569,-0.00818146279909,0.999215459652
1630203525118405892,0,1630203525118075539,world,cf33,2.00800013542,1.05481123924,0.0285983663052,0.00167630519545,-0.0331229976967,-0.00356193212424,0.999443530003
1630203525118433270,0,1630203525118100263,world,cf41,-1.06372916698,1.04430568218,0.026103451848,0.0111246361583,-0.0403194096263,-0.0139641651423,0.999027321833
1630203525128299778,0,1630203525127992263,world,cf33,2.00863027573,1.05501723289,0.0289174281061,-0.000653274048508,-0.0363424186952,0.000575435273992,0.999339016906
1630203525128327016,0,1630203525128016429,world,cf41,-1.06326949596,1.0447486639,0.0269154645503,0.00872369090561,-0.0479077797563,-0.0177826318533,0.998655355896
1630203525138346548,0,1630203525138097282,world,cf33,2.00911426544,1.05557501316,0.0293005015701,-0.000595428581293,-0.0385000785307,-0.00334849166447,0.999252809364
1630203525138363450,0,1630203525138113625,world,cf41,-1.06276035309,1.04422569275,0.0271824598312,0.000431405351858,-0.0537063070381,-0.0143380677525,0.99845373768
1630203525148495078,0,1630203525148131480,world,cf33,2.00938725471,1.05647659302,0.0297829769552,-0.0018699200448,-0.0373918038726,-0.00565201598552,0.999282948477
1630203525148523294,0,1630203525148156344,world,cf41,-1.06133663654,1.04490017891,0.0280762892216,0.00707116667878,-0.0689575216712,-0.0108460596372,0.997535574201
1630203525158445955,0,1630203525158125171,world,cf33,2.00999689102,1.05674338341,0.0300171338022,-0.00850894200459,-0.0435227784617,-0.00145287915072,0.999015142429
1630203525158468654,0,1630203525158149266,world,cf41,-1.06107747555,1.04479169846,0.0287606865168,0.0076505011396,-0.0708467815499,-0.0195634310349,0.997266000394
1630203525168300171,0,1630203525168022968,world,cf33,2.01037287712,1.05699312687,0.0297500994056,-0.00809711025479,-0.0438649502052,5.74868131671e-05,0.999004654466
1630203525168325663,0,1630203525168039171,world,cf41,-1.0601862669,1.04520404339,0.02905097045,0.0153771592981,-0.0795315880103,-0.0177020412717,0.996556524847
