%time,field.transforms0.header.seq,field.transforms0.header.stamp,field.transforms0.header.frame_id,field.transforms0.child_frame_id,field.transforms0.transform.translation.x,field.transforms0.transform.translation.y,field.transforms0.transform.translation.z,field.transforms0.transform.rotation.x,field.transforms0.transform.rotation.y,field.transforms0.transform.rotation.z,field.transforms0.transform.rotation.w
1630212527144976257,0,1630212527144626069,world,cf17,-0.997910141945,0.0507279783487,0.0290483832359,-0.00407686228564,0.0131784948997,-0.158850388436,0.987206290782
1630212527145020327,0,1630212527144649955,world,cf20,2.02163267136,0.0034329786431,0.0164364948869,-0.00922653752851,-0.00129959863435,-0.0230309409897,0.999691331265
1630212527154904792,0,1630212527154639741,world,cf17,-0.997928678989,0.0507297180593,0.0290584880859,-0.00381865710092,0.0133049016038,-0.158903974832,0.987197003761
1630212527154938525,0,1630212527154661881,world,cf20,2.02156424522,0.00350663531572,0.0164409317076,-0.00805221890792,-0.00104553290013,-0.0233425075471,0.999694551337
1630212527165041386,0,1630212527164737923,world,cf17,-0.997872710228,0.0507610291243,0.0290843527764,-0.00398504325136,0.0126040478666,-0.159484703447,0.987111891719
1630212527165076307,0,1630212527164759783,world,cf20,2.02153015137,0.00350611819886,0.0164615474641,-0.00807325655183,-0.000415181314886,-0.0227370230548,0.999708796568
1630212527174898752,0,1630212527174613797,world,cf17,-0.997913718224,0.0507185794413,0.0290312953293,-0.00452641946563,0.012770830373,-0.159051608525,0.987177290685
1630212527174937864,0,1630212527174635168,world,cf20,2.02160334587,0.00355048524216,0.0163985993713,-0.00949420104912,-0.00193484111171,-0.0227065937655,0.999695217122
1630212527184980032,0,1630212527184636549,world,cf17,-0.997835814953,0.0507832877338,0.0290920995176,-0.00438761614478,0.0125167648238,-0.158848329108,0.987213901727
1630212527185013067,0,1630212527184660365,world,cf20,2.02152276039,0.00356461899355,0.0163769032806,-0.0103445276261,-0.00141663173655,-0.0223486385467,0.999695714834
1630212527194938459,0,1630212527194644285,world,cf17,-0.997886538506,0.0507928952575,0.0290755182505,-0.00490744319389,0.0127999261172,-0.158860877343,0.987205804553
1630212527194962345,0,1630212527194665936,world,cf20,2.02152848244,0.0035614806693,0.0163560137153,-0.00965378263138,-0.000968259134948,-0.0221734479005,0.999707059675
1630212527204961630,0,1630212527204658446,world,cf17,-0.997863471508,0.0507672689855,0.0290718637407,-0.00425261394651,0.0127994863937,-0.158813549527,0.987216463046
1630212527204990335,0,1630212527204679818,world,cf20,2.02153015137,0.00348612619564,0.0163099784404,-0.0105564127886,-0.00151106481339,-0.0220792608689,0.99969934734
1630212527214985779,0,1630212527214637826,world,cf17,-0.997858226299,0.0507672652602,0.02907855995,-0.00432709658631,0.0141711814943,-0.159561189818,0.987076836196
1630212527215014764,0,1630212527214661572,world,cf20,2.02151226997,0.00343508715741,0.01633101888,-0.0104351633049,-0.000898438877586,-0.021791883359,0.999707664267
1630212527225032277,0,1630212527224709398,world,cf17,-0.997876226902,0.0507080741227,0.0290837660432,-0.00465298295073,0.013076203615,-0.160299223451,0.986970881845
1630212527225056443,0,1630212527224733214,world,cf20,2.02153801918,0.00329284789041,0.0163977593184,-0.011470499199,-0.00130265948324,-0.0208157557193,0.999716677384
1630212527235027512,0,1630212527234612440,world,cf17,-0.997943997383,0.0507270842791,0.0290446076542,-0.00374946554668,0.013636932624,-0.160066007578,0.987004989245
1630212527235055099,0,1630212527234634371,world,cf20,2.0214869976,0.00336758000776,0.0164040122181,-0.00917290131637,-8.12018971408e-05,-0.0219829357217,0.999716260658
1630212527244918542,0,1630212527244593357,world,cf17,-0.997835993767,0.0507852882147,0.0291120931506,-0.00409696718805,0.0127766729022,-0.159420654952,0.987119560268
1630212527244945431,0,1630212527244616475,world,cf20,2.02152347565,0.00344239594415,0.0164398886263,-0.00949977808577,-0.000588339930922,-0.0226570219899,0.999697988108
1630212527255097041,0,1630212527254787082,world,cf17,-0.997838437557,0.0508534908295,0.029083032161,-0.00430658926226,0.0123317744841,-0.15949223969,0.987112762609
1630212527255121486,0,1630212527254808524,world,cf20,2.02147388458,0.00340279983357,0.0164413433522,-0.00955204015047,-2.34135914392e-05,-0.0217324029953,0.999718190612
1630212527264990725,0,1630212527264734335,world,cf17,-0.997821033001,0.0508392490447,0.0290752723813,-0.00440121476893,0.0123177400295,-0.158942128944,0.98720124708
1630212527265014402,0,1630212527264757592,world,cf20,2.02181434631,0.0036690288689,0.0164216179401,-0.00869869181093,-0.00430071456783,-0.0251135589653,0.999637507185
1630212527274961305,0,1630212527274640870,world,cf17,-0.997878551483,0.0508012548089,0.0290775801986,-0.00482612011369,0.0132549191245,-0.159150615756,0.987153532733
1630212527274986728,0,1630212527274662800,world,cf20,2.02173066139,0.00364640075713,0.0164136271924,-0.00892556014286,-0.00353324631253,-0.0247476088183,0.999647641124
1630212527285006826,0,1630212527284673749,world,cf17,-0.997807562351,0.0508099719882,0.0290608815849,-0.00491583104638,0.0130234907565,-0.158632021944,0.987239639048
1630212527285031829,0,1630212527284696168,world,cf20,2.02172064781,0.00372432963923,0.0163725037128,-0.00864932792844,-0.00329639418585,-0.0243726581448,0.999660090454
1630212527294864820,0,1630212527294572042,world,cf17,-0.997846841812,0.0507596954703,0.0290782619268,-0.00444858931282,0.0131744292683,-0.158841681234,0.98720614097
1630212527294891151,0,1630212527294607452,world,cf20,2.02176332474,0.00365025410429,0.0163473691791,-0.00948702987039,-0.00426692319184,-0.02424415702,0.999651944669
1630212527304896442,0,1630212527304616236,world,cf17,-0.997919619083,0.0507549643517,0.0290803555399,-0.00436042895499,0.0137194505053,-0.159743277156,0.987053619993
1630212527304914461,0,1630212527304639004,world,cf20,2.02177643776,0.00360175943933,0.0163705386221,-0.00910040573139,-0.00379469371764,-0.0243677652135,0.99965443776
1630212527315078504,0,1630212527314777415,world,cf17,-0.997856318951,0.0507141463459,0.0291042607278,-0.00437676493517,0.0131435209832,-0.159089582369,0.987166954758
1630212527315116568,0,1630212527314801580,world,cf20,2.02178454399,0.00358377117664,0.016444567591,-0.00848124380391,-0.00334519527447,-0.0247760066393,0.999651453091
1630212527325094411,0,1630212527324765805,world,cf17,-0.997934222221,0.0506979413331,0.0290614031255,-0.00433150083489,0.0129616403212,-0.159574273923,0.987091325604
1630212527325118647,0,1630212527324790110,world,cf20,2.02174854279,0.00349353882484,0.0164553392678,-0.00899000534495,-0.0029022564786,-0.0239951920674,0.999667438436
1630212527334962882,0,1630212527334661933,world,cf17,-0.997882902622,0.0507944412529,0.0290581807494,-0.00384007385249,0.0123179552032,-0.159845840138,0.987057662552
1630212527334991029,0,1630212527334686028,world,cf20,2.02172589302,0.00360582023859,0.0164789147675,-0.0072601285591,-0.00204209522443,-0.0252362979864,0.99965306464
1630212527344940586,0,1630212527344631535,world,cf17,-0.997821092606,0.0508053414524,0.0290597993881,-0.00440907471927,0.0123012716026,-0.158661869843,0.987246499024
1630212527344967615,0,1630212527344654513,world,cf20,2.02169585228,0.00363389076665,0.0164867136627,-0.00762500076725,-0.0021701693218,-0.0242558575584,0.999674348527
1630212527354889585,0,1630212527354603721,world,cf17,-0.997891008854,0.0508069954813,0.0290697421879,-0.00437655025963,0.0127009527479,-0.159151421982,0.98716278115
1630212527354909001,0,1630212527354626560,world,cf20,2.02171516418,0.00366557366215,0.0164558570832,-0.00815683695879,-0.00253147422169,-0.0243681054401,0.999666570956
1630212527364842355,0,1630212527364545177,world,cf17,-0.997865080833,0.0508603863418,0.0291128922254,-0.00464428307328,0.0134582025344,-0.158597513343,0.987240667811
1630212527364881117,0,1630212527364567317,world,cf20,2.0217218399,0.00368592981249,0.016391236335,-0.00872742491961,-0.00385227526268,-0.0245462455112,0.999653176787
1630212527375483838,0,1630212527375127713,world,cf17,-0.9979159832,0.0507631003857,0.0290116686374,-0.00448932274173,0.0130658021753,-0.15868656631,0.987232345736
1630212527375512333,0,1630212527375150901,world,cf20,2.02171230316,0.00369126070291,0.0164061710238,-0.00818559548362,-0.00376893985425,-0.0244223071929,0.999661113593
1630212527384893377,0,1630212527384572522,world,cf17,-0.997868597507,0.0507686473429,0.0290809292346,-0.00434206245951,0.0137346286385,-0.158784361914,0.987208201385
1630212527384920755,0,1630212527384595919,world,cf20,2.02175283432,0.00368640897796,0.0163678694516,-0.00863810467662,-0.00383903958892,-0.0244237228924,0.999657004518
1630212527394874223,0,1630212527394564544,world,cf17,-0.997847735882,0.0507268682122,0.02908542566,-0.00442522759487,0.0122372348419,-0.158488599756,0.987275053464
1630212527394899087,0,1630212527394591922,world,cf20,2.02176976204,0.00360331381671,0.0163604672998,-0.00937171484754,-0.00402909105977,-0.0243228771766,0.999652107001
1630212527404966189,0,1630212527404623753,world,cf17,-0.997864723206,0.0507061034441,0.029067248106,-0.00423167970768,0.0125750191175,-0.159285530024,0.987143394703
1630212527404992729,0,1630212527404647360,world,cf20,2.02173614502,0.00366141973063,0.016371531412,-0.00861476835097,-0.00352463548422,-0.0250003377343,0.999644109583
1630212527414910438,0,1630212527414603064,world,cf17,-0.997814953327,0.0507695153356,0.0290990304202,-0.00468206020533,0.0126140524039,-0.158514152679,0.987265023889
1630212527414950458,0,1630212527414626321,world,cf20,2.02172732353,0.00353487487882,0.0164411682636,-0.00850233325473,-0.00213122619705,-0.0249305735007,0.999650756369
1630212527425017420,0,1630212527424662413,world,cf17,-0.99788069725,0.0507038235664,0.0290703866631,-0.00476355941367,0.0133060644624,-0.158985152019,0.987179810667
1630212527425043192,0,1630212527424686159,world,cf20,2.0217063427,0.00354793062434,0.0164591874927,-0.00817567776743,-0.00222166887769,-0.0245664850586,0.999662298125
1630212527434974171,0,1630212527434657298,world,cf17,-0.997896373272,0.0507528036833,0.029072728008,-0.00465051958938,0.0134286514224,-0.158934619389,0.987186826669
1630212527435002527,0,1630212527434679857,world,cf20,2.02173137665,0.003592136316,0.0164619721472,-0.00820244003877,-0.00310652723807,-0.0246033182232,0.999658814896
1630212527445023882,0,1630212527444736482,world,cf17,-0.997876524925,0.0507458373904,0.0290582515299,-0.004724599046,0.0131556934407,-0.159535828313,0.987093169553
1630212527445059990,0,1630212527444757784,world,cf20,2.02169895172,0.00357843236998,0.0164659544826,-0.00781889083002,-0.00274336085246,-0.0246711655708,0.999661278887
1630212527454877826,0,1630212527454542863,world,cf17,-0.997925162315,0.0507754050195,0.0290392413735,-0.00389577056776,0.0133777765144,-0.159303234753,0.987131367886
1630212527454906671,0,1630212527454565911,world,cf20,2.0216960907,0.00365858664736,0.0164088960737,-0.00829123973135,-0.00299513638382,-0.023919377133,0.999675021144
1630212527465026293,0,1630212527464707744,world,cf17,-0.997892439365,0.0507536716759,0.0290387775749,-0.00452601484575,0.0124345178008,-0.158799810104,0.987222122051
1630212527465054929,0,1630212527464731560,world,cf20,2.02169036865,0.00360384816304,0.0163473077118,-0.00942789652359,-0.00394642811301,-0.023698282914,0.999666910455
1630212527474978854,0,1630212527474623638,world,cf17,-0.997854709625,0.050788294524,0.0290820319206,-0.00471355817996,0.0125825350675,-0.159035818601,0.98718137674
1630212527475003299,0,1630212527474645638,world,cf20,2.0216293335,0.00365223689005,0.0163622759283,-0.00883654047133,-0.00260358189662,-0.023605013474,0.99967891858
1630212527484923383,0,1630212527484645412,world,cf17,-0.99785399437,0.050758831203,0.0290942713618,-0.00473393976529,0.0128315531841,-0.158703733203,0.98723151597
1630212527484957606,0,1630212527484666923,world,cf20,2.02164840698,0.00352210528217,0.0163525547832,-0.0104108064566,-0.00280362794602,-0.0232805318221,0.999670831633
1630212527494955284,0,1630212527494623605,world,cf17,-0.997859835625,0.0508476682007,0.0291133951396,-0.00464971264308,0.012979472817,-0.159561140231,0.98709176675
1630212527494977005,0,1630212527494648329,world,cf20,2.02157902718,0.00352119631134,0.0163387097418,-0.00961861196686,-0.00162425194201,-0.0233559328105,0.999679620935
1630212527504937598,0,1630212527504606337,world,cf17,-0.997871339321,0.0508844032884,0.0291290581226,-0.00404875775154,0.0134515288378,-0.1593386543,0.98712403333
1630212527504963649,0,1630212527504629385,world,cf20,2.02157044411,0.0034714108333,0.0164041295648,-0.00953148111482,-0.000949945002135,-0.0230105815466,0.999689332547
1630212527514962864,0,1630212527514651229,world,cf17,-0.997911572456,0.0506677888334,0.0290406383574,-0.00493512939507,0.0129459077268,-0.159000555791,0.987181275769
1630212527515004839,0,1630212527514673928,world,cf20,2.02147936821,0.00336921727285,0.0164182037115,-0.00996200904128,-0.00034246622045,-0.0232486402959,0.999680019715
1630212527524877990,0,1630212527524577110,world,cf17,-0.997820019722,0.0508364625275,0.0290968380868,-0.00381817730017,0.0131390939333,-0.159100856812,0.987167515214
1630212527524904879,0,1630212527524600996,world,cf20,2.02146840096,0.00338987447321,0.0163707081228,-0.0100218477276,-0.000554079891423,-0.0235792269359,0.999671583882
1630212527534982107,0,1630212527534636459,world,cf17,-0.997891962528,0.0507926680148,0.0290404334664,-0.00475801608321,0.0127990195941,-0.15898043996,0.98718730041
1630212527535005435,0,1630212527534660485,world,cf20,2.02145791054,0.00335259502754,0.016418306157,-0.0101411119341,0.000139958720284,-0.0223714095134,0.999698283632
1630212527545019107,0,1630212527544700977,world,cf17,-0.99785643816,0.0507963821292,0.0290396921337,-0.00461086447192,0.012686788177,-0.159959078749,0.98703134624
1630212527545044879,0,1630212527544724933,world,cf20,2.02147984505,0.00340808811598,0.0163746513426,-0.0113852798453,-0.00164979418873,-0.0227737690283,0.999674451522
1630212527554922010,0,1630212527554629232,world,cf17,-0.997845590115,0.0507997684181,0.0290590748191,-0.00388437798392,0.0131075292292,-0.158968378004,0.987189018922
1630212527554940518,0,1630212527554651023,world,cf20,2.02148222923,0.00335493986495,0.0163479726762,-0.0120044313233,-0.00101261108532,-0.0223776977252,0.999677001282
1630212527564895593,0,1630212527564591012,world,cf17,-0.997832477093,0.0507593527436,0.0290661044419,-0.00458667524532,0.0131623606442,-0.159317569368,0.987128981827
1630212527564924089,0,1630212527564614130,world,cf20,2.02141904831,0.00332498480566,0.0163252912462,-0.0120543903082,-0.000843097399988,-0.0221730285023,0.999681117991
1630212527574856535,0,1630212527574544760,world,cf17,-0.997856080532,0.0508062876761,0.0290812551975,-0.00451031273796,0.0131486167987,-0.158769053777,0.987217888066
1630212527574879234,0,1630212527574568157,world,cf20,2.02146100998,0.00342122139409,0.0163329467177,-0.0112094307852,-0.000277649399603,-0.0228474692456,0.999676079899
1630212527585134700,0,1630212527584682822,world,cf17,-0.997853398323,0.050810970366,0.0290942229331,-0.00424268330898,0.0130390450783,-0.159247518104,0.987143460151
1630212527585501929,0,1630212527585173602,world,cf20,2.02145624161,0.00337429344654,0.0163891986012,-0.0105685542087,0.000798952568125,-0.022944835285,0.999680549911
1630212527595381575,0,1630212527595054993,world,cf17,-0.997852861881,0.0508275106549,0.0290746726096,-0.00432147585396,0.0124638039739,-0.159205193684,0.987157375873
1630212527595686715,0,1630212527595413911,world,cf20,2.02136540413,0.00340889324434,0.0163744837046,-0.00903888774487,0.00097332142059,-0.02308960401,0.999692063258
1630212527604983109,0,1630212527604701786,world,cf17,-0.997876822948,0.0507916659117,0.0290815290064,-0.00410828918396,0.0126897066448,-0.159346234958,0.98713265102
1630212527605276725,0,1630212527605007833,world,cf20,2.02140498161,0.00333078834228,0.0163920968771,-0.0105705575111,0.000920941039543,-0.0221973130252,0.999697301425
1630212527614822386,0,1630212527614532821,world,cf17,-0.997918605804,0.0507954321802,0.029122794047,-0.00457898533949,0.0128993412467,-0.159883710054,0.9870409511
1630212527615081291,0,1630212527614849275,world,cf20,2.02140402794,0.0033975080587,0.0164064634591,-0.0091014757411,0.000522413474392,-0.0223940372485,0.999707655927
1630212527624835640,0,1630212527624560741,world,cf17,-0.997897803783,0.0507176332176,0.0290629565716,-0.00464376435277,0.0130264116618,-0.159005522931,0.987180830309
1630212527625084627,0,1630212527624854078,world,cf20,2.02139234543,0.00335136940703,0.0163964107633,-0.00939356511548,-0.000196482355433,-0.0219107916539,0.999715779378
1630212527634857204,0,1630212527634596205,world,cf17,-0.997841238976,0.0507454127073,0.0290653500706,-0.00361982596137,0.0134157315943,-0.158914209652,0.987194605423
1630212527635079861,0,1630212527634869077,world,cf20,2.02155375481,0.00338921812363,0.0163846034557,-0.0109381534522,-0.00204511193549,-0.0217621099946,0.999701247816
1630212527644774774,0,1630212527644536264,world,cf17,-0.997896313667,0.0506962239742,0.029048230499,-0.00430399827098,0.0137448961409,-0.158970205393,0.987178315821
1630212527645045622,0,1630212527644850204,world,cf20,2.0214817524,0.0033617822919,0.016354450956,-0.0110978099677,-0.00142642468087,-0.0214356588699,0.999707615483
1630212527654855425,0,1630212527654602597,world,cf17,-0.997852563858,0.0507857166231,0.0290437787771,-0.00406758165449,0.0132339691243,-0.159209357351,0.987147758632
1630212527655093237,0,1630212527654875470,world,cf20,2.02148151398,0.00337134534493,0.0163828711957,-0.0115335696926,-0.000926085119384,-0.0210811125959,0.999710811099
1630212527664709858,0,1630212527664467157,world,cf17,-0.99787735939,0.0508191436529,0.0290341619402,-0.004169661136,0.0133071291923,-0.15903346431,0.987174701594
1630212527664976864,0,1630212527664787103,world,cf20,2.02150988579,0.00339764310047,0.016310185194,-0.0118483081319,-0.00147756759367,-0.021900055904,0.999688862567
1630212527674805106,0,1630212527674579516,world,cf17,-0.997800409794,0.0508296191692,0.0290606040508,-0.0050525343555,0.0121274999262,-0.158272786607,0.987308017116
1630212527675014632,0,1630212527674823824,world,cf20,2.02149033546,0.00345754483715,0.0163176301867,-0.0110897159591,-0.000812578877329,-0.0221785154967,0.999692188309
1630212527684703679,0,1630212527684461606,world,cf17,-0.997888088226,0.0507793202996,0.0290412195027,-0.00504851908986,0.0126412978773,-0.158801632953,0.987216668931
1630212527684917186,0,1630212527684724561,world,cf20,2.02149057388,0.00349421100691,0.016325103119,-0.00983415478159,-0.000509900811758,-0.0228562622147,0.999690262371
1630212527694592055,0,1630212527694453209,world,cf17,-0.997856080532,0.0507599711418,0.0291118007153,-0.00577434762541,0.0129026743728,-0.15882596506,0.987205394397
1630212527694614195,0,1630212527694466898,world,cf20,2.02148222923,0.0034362252336,0.0163414627314,-0.00989345535109,-0.000401109885808,-0.0220624707093,0.999707560259
1630212527704994189,0,1630212527704834390,world,cf17,-0.997855901718,0.0508275218308,0.0291140731424,-0.00421027885394,0.0130164371693,-0.158984005317,0.987186371446
1630212527705011021,0,1630212527704847241,world,cf20,2.02144932747,0.00348909781314,0.0163845047355,-0.00897675481978,-0.000278901457008,-0.0225258248256,0.99970592041
1630212527714700556,0,1630212527714531748,world,cf17,-0.997921228409,0.0507830567658,0.0291381496936,-0.00492483660835,0.0134457332238,-0.159970463616,0.987017937534
1630212527714720321,0,1630212527714545716,world,cf20,2.02143096924,0.00339309987612,0.0164450295269,-0.00917278887974,0.000517409298148,-0.0210619775061,0.999735957809
1630212527724744051,0,1630212527724525376,world,cf17,-0.997918486595,0.0507626123726,0.0291389152408,-0.00405159541518,0.0148179846085,-0.159936739201,0.98700772609
1630212527724762489,0,1630212527724541230,world,cf20,2.021474123,0.00341221294366,0.0164033472538,-0.0100962482454,-0.000812616432581,-0.0217070356144,0.999713063849
1630212527734742987,0,1630212527734552947,world,cf17,-0.997858524323,0.0507040508091,0.0290873218328,-0.00364909744892,0.013433736923,-0.159358637609,0.987122608099
1630212527734767222,0,1630212527734568172,world,cf20,2.02146935463,0.00335506536067,0.0164170023054,-0.0104905903969,-0.000654742393415,-0.021364850293,0.99971649081
1630212527744728513,0,1630212527744530860,world,cf17,-0.997897803783,0.0506861656904,0.0290605220944,-0.0046507823242,0.0130147924538,-0.159214481578,0.987147270805
1630212527744744926,0,1630212527744548670,world,cf20,2.02151107788,0.00335619878024,0.0163894314319,-0.010923097792,-0.0010019423162,-0.0209424289859,0.9997205093
1630212527754945636,0,1630212527754723398,world,cf17,-0.997861683369,0.0507142022252,0.029007749632,-0.00445363112822,0.012578654132,-0.158548608788,0.987260999575
1630212527754962258,0,1630212527754741208,world,cf20,2.02150702477,0.00336166517809,0.0163295827806,-0.0116904255414,-0.000796835976074,-0.0216658038192,0.999696599948
1630212527764806564,0,1630212527764595012,world,cf17,-0.997835695744,0.0507840849459,0.0290172807872,-0.00481547800269,0.012331281177,-0.159093413901,0.987174774966
1630212527764823256,0,1630212527764614707,world,cf20,2.02151441574,0.00340114720166,0.0163032803684,-0.011704146548,-0.000972478857246,-0.0218191122369,0.99969294965
1630212527774667003,0,1630212527774455661,world,cf17,-0.997834682465,0.0508986376226,0.0290618054569,-0.00448042656954,0.0131561520489,-0.159494396612,0.98710099731
1630212527774692216,0,1630212527774469978,world,cf20,2.02147769928,0.00337306293659,0.0163100920618,-0.0108787640686,-0.000138502640456,-0.0215988941007,0.999707517769
1630212527784797521,0,1630212527784568509,world,cf17,-0.997829198837,0.05076630041,0.0290871206671,-0.00465783435803,0.013182589941,-0.159095393523,0.987164211092
1630212527784816448,0,1630212527784581918,world,cf20,2.02150344849,0.00342040346004,0.0163483899087,-0.0108015031883,-0.000840669420458,-0.0220105326369,0.999699033338
1630212527794940261,0,1630212527794670322,world,cf17,-0.997846245766,0.0508097931743,0.0291277468204,-0.00424198256099,0.0134111943582,-0.159214306128,0.987143834593
1630212527794964427,0,1630212527794684709,world,cf20,2.02146792412,0.00338468467817,0.0163665767759,-0.0110822108712,-0.000627780582597,-0.0221730420643,0.99969252608
1630212527804767665,0,1630212527804522939,world,cf17,-0.997896671295,0.0507738739252,0.0291153378785,-0.00394354723946,0.0142374414787,-0.159607950865,0.987069929496
1630212527804794066,0,1630212527804536209,world,cf20,2.02144384384,0.00339533900842,0.0163872446865,-0.00954201281923,9.85221364628e-05,-0.0219347575425,0.999713862411
1630212527814884215,0,1630212527814597025,world,cf17,-0.997904956341,0.0507603101432,0.0290781743824,-0.00384809519717,0.0139003955028,-0.159281864991,0.987127782333
1630212527814910196,0,1630212527814617558,world,cf20,2.02146053314,0.00338992360048,0.0164023004472,-0.00954124506567,-0.000223165826471,-0.0219004766314,0.999714601255
1630212527825032124,0,1630212527824769099,world,cf17,-0.997835338116,0.0507768988609,0.0290957633406,-0.00420895770403,0.0128634951659,-0.158984375246,0.987188322254
1630212527825051331,0,1630212527824789493,world,cf20,2.02143263817,0.00335358874872,0.0163977090269,-0.00966262154529,3.53534920217e-05,-0.0214630642341,0.999722946305
1630212527835034342,0,1630212527834769571,world,cf17,-0.997850894928,0.0507605932653,0.0290810670704,-0.00449841615853,0.0125605558965,-0.158991592485,0.98718978429
1630212527835056203,0,1630212527834781514,world,cf20,2.02152752876,0.00332376360893,0.016371704638,-0.0115409571224,-0.0010819698525,-0.0217014128906,0.999697296349
1630212527845337301,0,1630212527845057793,world,cf17,-0.997865200043,0.0508553683758,0.0290667656809,-0.00380045108036,0.0126204584568,-0.159433052922,0.987120753624
1630212527845361955,0,1630212527845075393,world,cf20,2.02147555351,0.00330848200247,0.0163291972131,-0.0120831718179,-0.000936997701341,-0.0216368305551,0.999692435981
1630212527854712407,0,1630212527854446938,world,cf17,-0.997851252556,0.0507987700403,0.0290914848447,-0.0046340111137,0.0122454018525,-0.159228639276,0.987154910087
1630212527854734338,0,1630212527854459859,world,cf20,2.02149963379,0.00344694242813,0.0163246169686,-0.0111031717749,-0.00111689184916,-0.0222521832465,0.999690108218
1630212527864881688,0,1630212527864622295,world,cf17,-0.997838675976,0.0508028008044,0.0290644168854,-0.00464691270308,0.0131286951355,-0.159141630629,0.987157527939
1630212527864903758,0,1630212527864635425,world,cf20,2.02153372765,0.00334237981588,0.0162904392928,-0.0120798716081,-0.00117339441678,-0.021784846368,0.999689011801
1630212527874700920,0,1630212527874490696,world,cf17,-0.997911632061,0.0507757402956,0.0290491823107,-0.00457089498281,0.0134443206169,-0.159036356994,0.987170600411
1630212527874738006,0,1630212527874502569,world,cf20,2.02149438858,0.00339494482614,0.0163134876639,-0.011416157705,-0.00102278916142,-0.0217112004707,0.999698579083
1630212527884758593,0,1630212527884504019,world,cf17,-0.997811973095,0.0507977306843,0.0290891844779,-0.00446293792861,0.0130926271232,-0.158938873544,0.987191521325
1630212527884780803,0,1630212527884518965,world,cf20,2.02153158188,0.00342545378953,0.0163127295673,-0.0106731790047,-0.00106587770328,-0.0221201398991,0.999697777614
1630212527895127273,0,1630212527894863410,world,cf17,-0.997894465923,0.0507590807974,0.0290807466954,-0.00500089254794,0.0133045026687,-0.159286349598,0.987130102932
1630212527895153324,0,1630212527894876470,world,cf20,2.021474123,0.00335163925774,0.0163908209652,-0.0106241174788,-0.000226008391201,-0.0215027542476,0.999712312922
1630212527904723500,0,1630212527904524031,world,cf17,-0.997863233089,0.0507649667561,0.0290846675634,-0.00402111328673,0.0132017899763,-0.159027621703,0.987177673433
1630212527904735023,0,1630212527904537161,world,cf20,2.02143478394,0.00340430857614,0.0164121817797,-0.00927203239472,0.000451040249381,-0.0219142231555,0.999716756287
1630212527914748417,0,1630212527914491468,world,cf17,-0.997861087322,0.0507804006338,0.0290820859373,-0.00354942159433,0.0131488989032,-0.159159880384,0.987158872999
1630212527914769369,0,1630212527914502154,world,cf20,2.02145957947,0.00338364415802,0.0164129845798,-0.00893897296264,0.000252360044999,-0.0224296695881,0.999708427992
1630212527924807556,0,1630212527924529236,world,cf17,-0.997878193855,0.0508099719882,0.0290354341269,-0.00404970632108,0.0124527161563,-0.159733535764,0.987073314041
1630212527924828509,0,1630212527924549211,world,cf20,2.02148580551,0.0033171554096,0.0163905154914,-0.0112267193053,-0.00053867738749,-0.0216458999777,0.99970251856
1630212527934738675,0,1630212527934475301,world,cf17,-0.997868835926,0.050807710737,0.029058419168,-0.00387277842463,0.0124395775998,-0.159442362087,0.987121264926
1630212527934770593,0,1630212527934487454,world,cf20,2.02148628235,0.00338101573288,0.0163779463619,-0.0105190954481,-0.000312813375673,-0.0217809727859,0.999707377188
1630212527944874083,0,1630212527944561400,world,cf17,-0.997898519039,0.0507565438747,0.0290513858199,-0.00468186276277,0.0131132850565,-0.159113969031,0.987162026607
1630212527944895594,0,1630212527944574390,world,cf20,2.02148127556,0.00331712770276,0.0163062177598,-0.011608810244,-6.03291159287e-05,-0.0216463507713,0.999698288177
1630212527954782922,0,1630212527954522900,world,cf17,-0.997837781906,0.0508265644312,0.0290902592242,-0.00418334308705,0.0131671212621,-0.159698737398,0.987069116036
1630212527954793678,0,1630212527954535332,world,cf20,2.02148962021,0.00340017210692,0.0162896066904,-0.0112064465478,-0.000222960231684,-0.0219911715948,0.999695330697
1630212527964727032,0,1630212527964510731,world,cf17,-0.997899949551,0.0507766865194,0.0290919207036,-0.00461035643832,0.0136729209619,-0.159157858308,0.987147695122
1630212527964748543,0,1630212527964522814,world,cf20,2.02151489258,0.00343203707598,0.0162943936884,-0.0111710683631,-0.00102180082285,-0.021943292235,0.999696281418
1630212527974766546,0,1630212527974533274,world,cf17,-0.997912526131,0.0507415123284,0.0290806740522,-0.00404291610825,0.0135985774839,-0.159213159775,0.987142291301
1630212527974788686,0,1630212527974547941,world,cf20,2.02148890495,0.00343602127396,0.0163367260247,-0.0109723766321,-0.000750842426787,-0.0219102086482,0.999699447806
1630212527984755425,0,1630212527984605404,world,cf17,-0.99784040451,0.0507972314954,0.0291018523276,-0.00462352490969,0.0124660741429,-0.159007655831,0.987187816679
1630212527984774352,0,1630212527984618744,world,cf20,2.0214509964,0.00345753063448,0.0163663700223,-0.0091748480255,-0.000802405473969,-0.0222306606643,0.999710446097
1630212527994969684,0,1630212527994747795,world,cf17,-0.99786055088,0.0507940761745,0.0291095301509,-0.00416599441926,0.0129837746111,-0.159227548126,0.987147736666
1630212527994993151,0,1630212527994761624,world,cf20,2.02149438858,0.00342677766457,0.0163999628276,-0.00892153652683,-0.000841805877506,-0.0222365090239,0.999712576301
1630212528004963172,0,1630212528004718445,world,cf17,-0.997853338718,0.0507467128336,0.0290787555277,-0.00437966494401,0.0127887919382,-0.158893970118,0.987203105544
1630212528004983007,0,1630212528004732134,world,cf20,2.0214715004,0.00338246230967,0.0164350792766,-0.0085273001087,9.31410008484e-05,-0.0218194959852,0.999725555376
1630212528014733654,0,1630212528014471118,world,cf17,-0.997837901115,0.0507492497563,0.0290740933269,-0.00466049976082,0.0129301101329,-0.158241659843,0.987304749854
1630212528014751324,0,1630212528014482852,world,cf20,2.02145171165,0.00336673134007,0.0164681840688,-0.00985366567538,0.000337574949694,-0.0211121848825,0.999728496626
1630212528025331695,0,1630212528025060149,world,cf17,-0.997891247272,0.0507304631174,0.0290682762861,-0.00491972047837,0.0134588213479,-0.159482095892,0.987096812662
1630212528025349994,0,1630212528025073070,world,cf20,2.02148723602,0.00338515662588,0.0163782797754,-0.00997312524123,3.28704363213e-05,-0.021818653975,0.999712199601
1630212528035089955,0,1630212528034844600,world,cf17,-0.997870326042,0.0507825650275,0.0290860105306,-0.00389768821674,0.0131764368673,-0.159527290898,0.987097884202
1630212528035113911,0,1630212528034857242,world,cf20,2.02158713341,0.00346023519523,0.0163195990026,-0.0107866267446,-0.00174423101782,-0.0224323687823,0.999688649117
1630212528044939010,0,1630212528044663134,world,cf17,-0.997919917107,0.0507463589311,0.0290267299861,-0.00447514099862,0.0131683723742,-0.159012289791,0.987178635697
1630212528044961988,0,1630212528044675706,world,cf20,2.02150535583,0.00343880429864,0.0163019411266,-0.0107954423892,-0.00109542626905,-0.0216655693983,0.99970638768
1630212528054751957,0,1630212528054560031,world,cf17,-0.997919380665,0.0507277734578,0.0290372483432,-0.00443943915211,0.0133801288698,-0.159166946764,0.987151025218
1630212528054762363,0,1630212528054572393,world,cf20,2.02154636383,0.00343942409381,0.0163276083767,-0.011354884248,-0.00105276262525,-0.0217605775569,0.999698172229
1630212528064946799,0,1630212528064691946,world,cf17,-0.997876405716,0.050794698298,0.0290582962334,-0.00446203758784,0.0130998703118,-0.158601339604,0.987245713434
1630212528064963492,0,1630212528064706613,world,cf20,2.02155470848,0.00351622630842,0.0163325555623,-0.0099914912757,-0.00173440471907,-0.0222810228812,0.999700314075
1630212528074850541,0,1630212528074597992,world,cf17,-0.997840762138,0.0508058555424,0.0290964134037,-0.00421363021066,0.0131829864929,-0.159034594474,0.987175998466
1630212528074870376,0,1630212528074611262,world,cf20,2.02148270607,0.00342229218222,0.0163947883993,-0.00978886683224,-0.000841625129392,-0.0215564420443,0.999719355399
1630212528084729558,0,1630212528084464367,world,cf17,-0.99791264534,0.0507364682853,0.0290479175746,-0.00414448285003,0.0126751207087,-0.159213262497,0.987154142787
1630212528084756656,0,1630212528084477498,world,cf20,2.02146196365,0.00345142930746,0.0163907390088,-0.0091533723593,-0.000997261117111,-0.0218301018354,0.999719294552
1630212528094682049,0,1630212528094492777,world,cf17,-0.997859418392,0.0507511682808,0.0290599316359,-0.00386566430255,0.012989343885,-0.159376142075,0.987124905431
1630212528094704608,0,1630212528094505278,world,cf20,2.02142691612,0.00333835557103,0.0164433531463,-0.0095533605337,-7.23638424238e-05,-0.0211632898813,0.999730385268
1630212528104873539,0,1630212528104615193,world,cf17,-0.997937321663,0.0507394857705,0.0290940012783,-0.00450246882724,0.0136138007746,-0.15939127209,0.987111348625
1630212528104887368,0,1630212528104632863,world,cf20,2.02146315575,0.00338183902204,0.0164137948304,-0.00891723744989,-0.000191622642613,-0.0219762711955,0.999718705267
1630212528114772810,0,1630212528114543100,world,cf17,-0.997902452946,0.0507592409849,0.0290859397501,-0.004308053368,0.0136730552259,-0.15909044724,0.987159925156
1630212528114793553,0,1630212528114558884,world,cf20,2.02147579193,0.00337706878781,0.0163936950266,-0.00996281758939,0.00017858463864,-0.0217450241079,0.999713891221
1630212528124818820,0,1630212528124569623,world,cf17,-0.997851908207,0.050787396729,0.0290845427662,-0.00420956179099,0.0132289465284,-0.15925447839,0.987139952426
1630212528124850877,0,1630212528124582823,world,cf20,2.02148675919,0.00345034850761,0.0163580421358,-0.0100309976771,-0.000228829545431,-0.0219812741832,0.999708032531
1630212528135033009,0,1630212528134782555,world,cf17,-0.997809827328,0.0507951490581,0.0290922410786,-0.00464213359072,0.0129617908682,-0.158407270557,0.987277863222
1630212528135064298,0,1630212528134796803,world,cf20,2.02176094055,0.00368159101345,0.016387809068,-0.00864966132617,-0.00359303811912,-0.0251139424514,0.999640717123
1630212528144783726,0,1630212528144549545,world,cf17,-0.997819542885,0.0508262626827,0.0290458258241,-0.00472800771529,0.0128112513079,-0.158846367433,0.987208868141
1630212528144809917,0,1630212528144561209,world,cf20,2.02175021172,0.00366227072664,0.0163792278618,-0.00909853556036,-0.00338689965443,-0.0244556334358,0.999653773841
1630212528154766598,0,1630212528154602888,world,cf17,-0.997835636139,0.0507294125855,0.029026126489,-0.00428630694242,0.0120853782608,-0.158944756987,0.987204201486
1630212528154794255,0,1630212528154617904,world,cf20,2.02173805237,0.00364069011994,0.0163738280535,-0.00897774488455,-0.00382818008915,-0.0241826981789,0.999659913292
1630212528164922539,0,1630212528164679628,world,cf17,-0.997852504253,0.0508148744702,0.02907458134,-0.00466166712285,0.0129369133033,-0.158775358103,0.987218968007
1630212528164944679,0,1630212528164692549,world,cf20,2.02171707153,0.00368493772112,0.0164036322385,-0.00858033927671,-0.00356591545089,-0.0244006425271,0.99965907722
1630212528174775994,0,1630212528174543559,world,cf17,-0.99784809351,0.050788603723,0.0290761068463,-0.00446450801344,0.0128819764922,-0.159524127096,0.987099881331
1630212528174799111,0,1630212528174556271,world,cf20,2.02176165581,0.00361973489635,0.0164392571896,-0.00802824734109,-0.00389428830018,-0.0247130709013,0.999654763351
1630212528184908886,0,1630212528184648026,world,cf17,-0.997924208641,0.0507611855865,0.0290740225464,-0.00412536268101,0.0136497522088,-0.159847153401,0.987038779986
1630212528184926277,0,1630212528184660808,world,cf20,2.02171015739,0.0036068635527,0.016444247216,-0.0071649755893,-0.00297365848221,-0.0247855390006,0.99966269188
1630212528194891898,0,1630212528194605616,world,cf17,-0.997878551483,0.0507219955325,0.0290997158736,-0.00449813900316,0.0133372935786,-0.158633827436,0.987237150911
1630212528194932057,0,1630212528194617629,world,cf20,2.02172327042,0.00360182253644,0.0164639744908,-0.0078540473225,-0.00294122894913,-0.0244307632599,0.999666344797
1630212528204741163,0,1630212528204504119,world,cf17,-0.997912406921,0.050758998841,0.0290921460837,-0.00378139502064,0.0133606958697,-0.159067257719,0.987170096984
1630212528204765118,0,1630212528204517598,world,cf20,2.02172374725,0.00360497203656,0.0164792761207,-0.00722296202783,-0.00174743296228,-0.0249786802864,0.999660362738
1630212528214933212,0,1630212528214724733,world,cf17,-0.997858405113,0.0507140904665,0.0290857292712,-0.00377272133344,0.0125621043024,-0.159114850034,0.987172945642
1630212528214956888,0,1630212528214737444,world,cf20,2.02167916298,0.00364858773537,0.0164244435728,-0.00753647728235,-0.0020245781293,-0.0246799397782,0.999664945452
1630212528224762292,0,1630212528224534397,world,cf17,-0.997807681561,0.0508053041995,0.0290977116674,-0.00491224285301,0.0122554975113,-0.158412861875,0.987284679231
1630212528224783105,0,1630212528224545432,world,cf20,2.02177357674,0.00364676932804,0.0163907893002,-0.00915110110807,-0.00393103062922,-0.0249640196445,0.999638735779
1630212528235338472,0,1630212528235173645,world,cf17,-0.997912287712,0.0507898852229,0.0290231145918,-0.00509851470768,0.012441009242,-0.159197136234,0.987155255394
1630212528235353488,0,1630212528235197461,world,cf20,2.02173781395,0.00365095143206,0.0163780096918,-0.00869309434484,-0.00368982412915,-0.0244236252627,0.999657092126
1630212528244903898,0,1630212528244636473,world,cf17,-0.997906088829,0.0507695823908,0.0290295109153,-0.00489261791388,0.0131202395581,-0.159271016201,0.987135585926
1630212528244919124,0,1630212528244652816,world,cf20,2.02172136307,0.00367482425645,0.016388008371,-0.0088892672014,-0.00367367266795,-0.0240970998469,0.999663350752
1630212528254583796,0,1630212528254354225,world,cf17,-0.997918665409,0.0508737564087,0.0290776528418,-0.00506265503137,0.01328643678,-0.159868849765,0.987035861049
1630212528254598951,0,1630212528254368612,world,cf20,2.02172732353,0.0037157300394,0.0164118558168,-0.00858503220125,-0.00350473849574,-0.0243981353783,0.999659314477
1630212528264772073,0,1630212528264542991,world,cf17,-0.997860848904,0.0508205778897,0.0290993396193,-0.00461299011729,0.0128560064215,-0.159383324279,0.987122281869
1630212528264802315,0,1630212528264557449,world,cf20,2.02168536186,0.0036558653228,0.0164413228631,-0.00797339985548,-0.00243373491875,-0.0243193429971,0.999669481071
1630212528274902173,0,1630212528274642290,world,cf17,-0.997929394245,0.0507417730987,0.029067216441,-0.00392972583953,0.013385034137,-0.159488647827,0.987101195081
1630212528274924243,0,1630212528274655071,world,cf20,2.02170300484,0.00363402301446,0.0164577513933,-0.00715643965099,-0.0022366712988,-0.0246868191487,0.999667116411
1630212528284978982,0,1630212528284747037,world,cf17,-0.997827589512,0.0507188737392,0.0291062556207,-0.00441263433993,0.0128344596646,-0.158710987876,0.987231800354
1630212528284998049,0,1630212528284769316,world,cf20,2.02176976204,0.00361946877092,0.0164329838008,-0.00773935599272,-0.00350212524612,-0.0251409660236,0.999647822643
1630212528295238778,0,1630212528294974705,world,cf17,-0.997897744179,0.0507417656481,0.029078874737,-0.00439957713225,0.0133413150195,-0.159316911444,0.987127537232
1630212528295257286,0,1630212528294997055,world,cf20,2.02171897888,0.0035581451375,0.0164445471019,-0.00793268987029,-0.00190259816474,-0.0248040143939,0.999659048587
1630212528304895418,0,1630212528304614723,world,cf17,-0.997871279716,0.0507147200406,0.0290886629373,-0.00386694917234,0.0126238653326,-0.159581633637,0.98709644257
1630212528304910225,0,1630212528304634837,world,cf20,2.0216896534,0.00359156727791,0.0164404269308,-0.00777417750796,-0.0021172927322,-0.0245901589455,0.999665145596
1630212528315479421,0,1630212528315152281,world,cf17,-0.997922718525,0.0507419854403,0.0290647633374,-0.00459132448312,0.0134626015711,-0.159187678561,0.987145866168
1630212528315496323,0,1630212528315174141,world,cf20,2.02172231674,0.00357746263035,0.0164096150547,-0.00932698970989,-0.00384745535134,-0.0237664057464,0.999666625585
1630212528325446299,0,1630212528325197452,world,cf17,-0.997883975506,0.0507675930858,0.0290411692113,-0.00486632900474,0.013309529936,-0.159134148995,0.987155255205
1630212528325470395,0,1630212528325210512,world,cf20,2.02171850204,0.00362260616384,0.0163849815726,-0.00863539785306,-0.00319110317296,-0.0242459434602,0.999663633924
1630212528334845082,0,1630212528334568927,world,cf17,-0.997840821743,0.0507775507867,0.0290268752724,-0.0049772518298,0.0124535503755,-0.158751426887,0.987227491771
1630212528334868060,0,1630212528334583035,world,cf20,2.02169823647,0.00361640984192,0.0163896717131,-0.00925676047991,-0.00316001331408,-0.0241234411416,0.99966113573
1630212528344896470,0,1630212528344610955,world,cf17,-0.997856020927,0.0508067905903,0.029076686129,-0.00475048929482,0.0132118697391,-0.158831508223,0.987205870802
1630212528344918609,0,1630212528344632955,world,cf20,2.02167654037,0.00369970710017,0.0163914822042,-0.00874070381091,-0.00305074298596,-0.0239970932664,0.999669161562
1630212528354922015,0,1630212528354595504,world,cf17,-0.997860014439,0.0508547984064,0.0290799625218,-0.00404908691207,0.0127660677716,-0.159048123922,0.987179986976
1630212528354934447,0,1630212528354613663,world,cf20,2.02167201042,0.00365390628576,0.0164073780179,-0.00849713272668,-0.00237128994628,-0.0242170220327,0.999667800603
1630212528364897135,0,1630212528364663374,world,cf17,-0.997887730598,0.0508391670883,0.0291156563908,-0.00346745879569,0.0132661043873,-0.159483046708,0.987105437639
1630212528364916830,0,1630212528364686212,world,cf20,2.02165222168,0.00357157806866,0.016383510083,-0.00922176531135,-0.00214569319472,-0.0237906801265,0.999672125541
1630212528375026675,0,1630212528374514174,world,cf17,-0.997871518135,0.0508275143802,0.02914025262,-0.00415226115636,0.0129602243186,-0.1597167987,0.9870690632
1630212528375053145,0,1630212528374531146,world,cf20,2.0215420723,0.00353482924402,0.0164455305785,-0.00782975291674,-0.000518533994264,-0.0230667949889,0.999703130465
1630212528384908835,0,1630212528384665436,world,cf17,-0.997886538506,0.0507181696594,0.0291220024228,-0.00444277048604,0.0128342927969,-0.159348114834,0.987129029569
1630212528384936213,0,1630212528384686877,world,cf20,2.02162766457,0.003505196888,0.0164199769497,-0.00938394756393,-0.00185763742288,-0.0234083644433,0.999680218463
1630212528394707674,0,1630212528394509602,world,cf17,-0.997901558876,0.0507495701313,0.0290932599455,-0.00435182175682,0.0133467475835,-0.159656719429,0.987072772351
1630212528394724017,0,1630212528394529646,world,cf20,2.0215382576,0.00343497167341,0.0164369530976,-0.00915234071348,-0.000738953182877,-0.0219157692303,0.999717653974
1630212528405284133,0,1630212528405025019,world,cf17,-0.997891366482,0.050726942718,0.0290197674185,-0.00427465657118,0.0126380241748,-0.158875407302,0.987208495005
1630212528405306343,0,1630212528405038639,world,cf20,2.02152872086,0.00342970644124,0.0163975115865,-0.00953900699983,-0.00104602784882,-0.0220300587646,0.999711253154
1630212528414839991,0,1630212528414536248,world,cf17,-0.997887730598,0.0507578440011,0.0290060117841,-0.00448538307502,0.0126533719991,-0.159190085348,0.987156669553
1630212528414861992,0,1630212528414547353,world,cf20,2.02157664299,0.00339010870084,0.0163590349257,-0.0115568296311,-0.00257148670305,-0.021575546462,0.9996971156
1630212528424831175,0,1630212528424556346,world,cf17,-0.997923254967,0.0507095046341,0.0289715230465,-0.00433098570788,0.0129890776995,-0.159264400386,0.987141011808
1630212528424851988,0,1630212528424568289,world,cf20,2.0215382576,0.00348174758255,0.0163373816758,-0.0104867940103,-0.00145506292636,-0.021665391213,0.999709218106
1630212528434995008,0,1630212528434715849,world,cf17,-0.997844696045,0.0508769191802,0.0291021708399,-0.0043528609809,0.0131053418541,-0.158944498706,0.987190938445
1630212528435014843,0,1630212528434729119,world,cf20,2.02155303955,0.00350171560422,0.016335228458,-0.0106838204999,-0.00114383827006,-0.0219044683661,0.999702326635
1630212528444877517,0,1630212528444650670,world,cf17,-0.997922599316,0.0508336685598,0.0291304085404,-0.0050377808839,0.0135863759507,-0.158986599288,0.987174398168
1630212528444899727,0,1630212528444664848,world,cf20,2.02152276039,0.00358900730498,0.0163736250252,-0.00904677790183,-0.000582376599766,-0.022522426691,0.999705235028
1630212528454851100,0,1630212528454635218,world,cf17,-0.997915029526,0.0508348755538,0.0291386470199,-0.00482311809313,0.0143423707717,-0.159184951258,0.987132810328
1630212528454868840,0,1630212528454654704,world,cf20,2.02146673203,0.00350925559178,0.0164098534733,-0.00950825876522,6.37069686055e-05,-0.0218603892737,0.999715815788
1630212528465229418,0,1630212528464966183,world,cf17,-0.997956931591,0.0507436096668,0.0291480403394,-0.00417911857934,0.0149850786321,-0.159305330757,0.987106779421
1630212528465251488,0,1630212528464996425,world,cf20,2.02154016495,0.00347075914033,0.0164198428392,-0.00949582931688,-0.000192023422539,-0.0229890013305,0.999690601221
1630212528474832698,0,1630212528474558080,world,cf17,-0.997927606106,0.0507833883166,0.0292057730258,-0.00374747476595,0.0156691740663,-0.159711416193,0.987032267433
1630212528474854210,0,1630212528474572397,world,cf20,2.02139830589,0.00340126897208,0.0165239572525,-0.00918143167651,0.00183884651783,-0.0226942919964,0.999698599112
1630212528485385551,0,1630212528485111282,world,cf17,-0.997914373875,0.0507244318724,0.0292226802558,-0.00392674562553,0.0164465681122,-0.159864440952,0.986994149722
1630212528485405876,0,1630212528485125530,world,cf20,2.02152061462,0.00332326744683,0.0166294369847,-0.0119747556472,0.0018118229886,-0.0231242402859,0.999659237959
1630212528494957333,0,1630212528494645279,world,cf17,-0.997849106789,0.0507502779365,0.0293276961893,-0.00414262860563,0.0182204101407,-0.160692128997,0.98682769264
1630212528494979962,0,1630212528494665743,world,cf20,2.02157187462,0.00338075589389,0.0167578160763,-0.0102490156132,0.00521172662912,-0.0222331410178,0.999686692432
1630212528504990841,0,1630212528504738991,world,cf17,-0.997796773911,0.0510003864765,0.0294773001224,-0.00281730294611,0.0191897060983,-0.161510452848,0.986680389794
1630212528505004879,0,1630212528504754845,world,cf20,2.02186942101,0.00351013522595,0.0170255098492,-0.0115520229814,0.00584069836397,-0.0224241003772,0.999664742166
1630212528514949688,0,1630212528514701748,world,cf17,-0.997619748116,0.0509906858206,0.0295198801905,-0.0053247175855,0.0204933638631,-0.165413989822,0.985996897252
1630212528514980837,0,1630212528514723888,world,cf20,2.02231574059,0.00382137461565,0.0174966976047,-0.0118481361061,0.0088599093301,-0.0235979543486,0.999612054863
1630212528524978935,0,1630212528524674493,world,cf17,-0.997503995895,0.0512447990477,0.0298045258969,-0.00556390124617,0.0223285964598,-0.169728546557,0.985222156301
1630212528525005545,0,1630212528524689719,world,cf20,2.0226328373,0.00414482085034,0.0179093033075,-0.00830538482139,0.012863220715,-0.0263456163458,0.999535625496
1630212528534968163,0,1630212528534704160,world,cf17,-0.997249543667,0.0512695945799,0.0299239512533,-0.00826706006845,0.0229144361198,-0.171300295045,0.984917658108
1630212528535001687,0,1630212528534716871,world,cf20,2.02331757545,0.00451410701498,0.0183442234993,-0.00950082318636,0.0106699478295,-0.0311248718882,0.999413392407
1630212528545040014,0,1630212528544732080,world,cf17,-0.997289538383,0.0514517128468,0.0299419742078,-0.00426458754076,0.0249080024911,-0.174046427187,0.984413147966
1630212528545081570,0,1630212528544756595,world,cf20,2.02376246452,0.00462117046118,0.0191339589655,-0.00555474064174,0.019149496665,-0.0298171389725,0.999356482872
1630212528554850865,0,1630212528554621992,world,cf17,-0.997143924236,0.0515141859651,0.0299859084189,-0.00508251959202,0.0269126158619,-0.178674782609,0.983526919388
1630212528554870281,0,1630212528554639243,world,cf20,2.02446079254,0.00412512756884,0.0194971486926,-0.00783654580807,0.0171221326829,-0.0251015573436,0.999507545215
1630212528564995491,0,1630212528564713050,world,cf17,-0.997117459774,0.0519303195179,0.0300818644464,-0.00230303479951,0.0277999922996,-0.182648989264,0.982782378342
1630212528565024685,0,1630212528564734841,world,cf20,2.02549791336,0.00478521501645,0.0201909709722,0.00364688483623,0.0200785641959,-0.0310710707878,0.999308831168
1630212528574945119,0,1630212528574611274,world,cf17,-0.997091591358,0.0522459819913,0.0302211344242,-0.000754909667807,0.0309325054915,-0.184751634654,0.982298042199
1630212528574971519,0,1630212528574635439,world,cf20,2.02619123459,0.00505937868729,0.0208878237754,0.00602991646829,0.0242619198087,-0.0310908630838,0.999203861876
1630212528584892581,0,1630212528584629975,world,cf17,-0.997135400772,0.0526341348886,0.030576819554,-0.00319355649169,0.0339773252371,-0.187595318485,0.98165337011
1630212528584931832,0,1630212528584650857,world,cf20,2.02727985382,0.00532294483855,0.0209056790918,0.00530126881492,0.0183062350021,-0.0314365627969,0.999324031948
1630212528594967225,0,1630212528594692118,world,cf17,-0.997155249119,0.0531661622226,0.0307967755944,-0.00200563900673,0.0375506018532,-0.190485401648,0.980969541562
1630212528594993696,0,1630212528594712092,world,cf20,2.02808690071,0.00575757119805,0.0211100168526,0.00610807995636,0.0170056854925,-0.0363312656855,0.999176429443
1630212528605091667,0,1630212528604762292,world,cf17,-0.997269392014,0.0534120202065,0.0309659596533,-0.00259283041942,0.0371541934854,-0.19170008351,0.980746614126
1630212528605118207,0,1630212528604786947,world,cf20,2.02899861336,0.005848784931,0.0211437959224,0.000713648372427,0.0116822474397,-0.0349257057778,0.999321375173
1630212528615074121,0,1630212528614819267,world,cf17,-0.997485220432,0.0536495298147,0.0310162920505,-0.00492374266476,0.0363274733367,-0.192319837638,0.980647312488
1630212528615120635,0,1630212528614840639,world,cf20,2.03018116951,0.00615249108523,0.0211075246334,0.00363894002658,0.00725195436031,-0.0355902993989,0.999333526838
1630212528625025494,0,1630212528624720773,world,cf17,-0.997526705265,0.0539044737816,0.0312560237944,-0.00816114889444,0.0363111007534,-0.1907733508,0.980928350205
1630212528625050637,0,1630212528624741796,world,cf20,2.03079605103,0.00617529964074,0.0212221443653,0.000183163947545,0.00666020604877,-0.0341762331572,0.999393612744
1630212528635474841,0,1630212528635199035,world,cf17,-0.997714519501,0.0542397424579,0.0313816480339,-0.00802450250367,0.0353629661739,-0.19060775538,0.980996305585
1630212528635488530,0,1630212528635222851,world,cf20,2.03198242188,0.00667576584965,0.0215655360371,-0.00437428574946,0.0062150886136,-0.0355148617939,0.999340248809
1630212528645423910,0,1630212528645119678,world,cf17,-0.99780613184,0.0546857528389,0.0318263657391,-0.0114626808985,0.0346805487621,-0.191721258927,0.980769506744
1630212528645440043,0,1630212528645140561,world,cf20,2.03290534019,0.00773380929604,0.0217190179974,-0.000933023305984,0.00610617747536,-0.0415957206433,0.999115428811
1630212528655080201,0,1630212528654754248,world,cf17,-0.997912824154,0.0549896135926,0.0321621671319,-0.0128867782501,0.0310476734107,-0.189824444069,0.981242402954
1630212528655098429,0,1630212528654778762,world,cf20,2.03335523605,0.00768919847906,0.0217035226524,-0.0026255645811,0.00720626442359,-0.0410942063076,0.999125839107
1630212528664883229,0,1630212528664601976,world,cf17,-0.998017966747,0.0551069676876,0.0324920788407,-0.0120045747999,0.0267244894928,-0.188711539526,0.981595459798
1630212528664910258,0,1630212528664616852,world,cf20,2.03468465805,0.00840471498668,0.0220713634044,-0.00191721075857,0.00379243190751,-0.0464016274046,0.998913825481
1630212528674999989,0,1630212528674784317,world,cf17,-0.998080253601,0.0554121248424,0.0328860729933,-0.0112494387877,0.0232428683347,-0.185704110868,0.982266360213
1630212528675039729,0,1630212528674804431,world,cf20,2.03506875038,0.00896067544818,0.0222874674946,-0.00166230985338,0.0072430823484,-0.0484196130933,0.9987994371
1630212528684840802,0,1630212528684600196,world,cf17,-0.998130977154,0.0555824562907,0.033283546567,-0.00982984721108,0.021592656302,-0.184291140538,0.982585317831
1630212528684868949,0,1630212528684612838,world,cf20,2.03604674339,0.00906663294882,0.0223073326051,-0.00204233873047,-0.000803861248199,-0.0458830299855,0.998944407972
1630212528694911606,0,1630212528694680428,world,cf17,-0.998213529587,0.0560318157077,0.0338662341237,-0.011253923078,0.0220477690829,-0.183217717574,0.982760659093
1630212528694950019,0,1630212528694690555,world,cf20,2.03676605225,0.00932091847062,0.022528424859,-0.00419988261383,-0.00575256036791,-0.0449894417709,0.998962070934
1630212528704860744,0,1630212528704589338,world,cf17,-0.998261153698,0.0565051957965,0.0343934297562,-0.00689888123443,0.0237358299843,-0.181637476447,0.983054852469
1630212528704886167,0,1630212528704599884,world,cf20,2.03724265099,0.00946053583175,0.0227633044124,-0.00191326191146,-0.00848790707137,-0.0450873403325,0.998945156955
1630212528715001739,0,1630212528714707285,world,cf17,-0.998341083527,0.0567961595953,0.0348733365536,-0.00550870685029,0.0239782852536,-0.17974862278,0.983404865045
1630212528715028698,0,1630212528714718808,world,cf20,2.03790616989,0.00937606208026,0.0229616388679,-0.00437920770796,-0.0180736183045,-0.043996974564,0.998858565108
1630212528725068910,0,1630212528724782069,world,cf17,-0.998522400856,0.0573232211173,0.0353579707444,-0.00154882736043,0.0216542831727,-0.177764337499,0.983833590333
1630212528725118777,0,1630212528724794920,world,cf20,2.03867411613,0.00966416019946,0.0231897253543,-0.00400601326205,-0.0237059797373,-0.0429533867726,0.998787757708
1630212528734889120,0,1630212528734611149,world,cf17,-0.998621404171,0.0576532185078,0.0361186936498,-0.000857740705137,0.0151916836571,-0.174782396644,0.984489507741
1630212528734914473,0,1630212528734623092,world,cf20,2.03924679756,0.0100715672597,0.0234941262752,0.00442474049902,-0.0296765692144,-0.0409882658999,0.998709009156
1630212528744967257,0,1630212528744664911,world,cf17,-0.998676896095,0.057628467679,0.0367097556591,-0.00265061603602,0.00855741198409,-0.174167755157,0.98467524494
1630212528744995194,0,1630212528744677343,world,cf20,2.0400621891,0.00990175735205,0.0237605888397,0.00191952650801,-0.0400658514305,-0.0368053469462,0.998517105213
1630212528754878192,0,1630212528754609719,world,cf17,-0.998714447021,0.0579102635384,0.0375387221575,-0.00385332442602,0.00066897490011,-0.171289686431,0.98521294535
1630212528754895652,0,1630212528754624316,world,cf20,2.04075145721,0.0100867962465,0.0240756925195,0.000364916175363,-0.0475773525145,-0.0404331656912,0.998048807161
1630212528764951859,0,1630212528764660757,world,cf17,-0.998697459698,0.0583021007478,0.0384282544255,0.000347049850243,-0.00703880147529,-0.168527127089,0.985671822802
1630212528764988386,0,1630212528764674446,world,cf20,2.04126501083,0.0102374944836,0.0242696944624,0.000267216056924,-0.0522915933273,-0.0390270269511,0.997868933794
1630212528774961969,0,1630212528774667864,world,cf17,-0.998794794083,0.0586951188743,0.0392420850694,0.000705762610604,-0.0147714702648,-0.166818191114,0.985876765462
1630212528775014071,0,1630212528774682671,world,cf20,2.04179286957,0.0102055799216,0.0244939252734,-0.00149129237476,-0.0568076034953,-0.0296548268688,0.997943517177
1630212528785431082,0,1630212528785109948,world,cf17,-0.998965382576,0.0588954202831,0.0400474481285,0.00166176285684,-0.0205918237415,-0.166571262389,0.985812979163
1630212528785459926,0,1630212528785123707,world,cf20,2.04202532768,0.0102051533759,0.0246513187885,-6.40674395474e-05,-0.0556526844713,-0.0281537542689,0.9980531753
1630212528795011664,0,1630212528794707990,world,cf17,-0.999065220356,0.0588025078177,0.0407516993582,0.00197917916851,-0.0276103311296,-0.163042511713,0.986230648398
1630212528795039950,0,1630212528794720213,world,cf20,2.04286241531,0.0105763571337,0.024894753471,0.000387297619012,-0.0605700493928,-0.0296766270551,0.997722615221
1630212528805026314,0,1630212528804708672,world,cf17,-0.999335587025,0.058951638639,0.041729837656,-0.00209102220164,-0.0284029374852,-0.162469729261,0.98630243224
1630212528805040911,0,1630212528804723619,world,cf20,2.043197155,0.0100747570395,0.0251127835363,-0.00550343001405,-0.0579397266784,-0.0248007978469,0.997996803981
1630212528814803990,0,1630212528814567296,world,cf17,-0.999356687069,0.0594281665981,0.0426401756704,-0.00117550705661,-0.0291406299541,-0.162089268979,0.986345026221
1630212528814829343,0,1630212528814582591,world,cf20,2.04370999336,0.0100233685225,0.0250214189291,-0.00473773621077,-0.0604190717102,-0.0243531466516,0.997864727244
1630212528825295522,0,1630212528825040668,world,cf17,-0.999673545361,0.0595156773925,0.0433498471975,0.000634650116209,-0.0311894062165,-0.157933994752,0.986956772843
1630212528825319478,0,1630212528825054357,world,cf20,2.04400849342,0.0097203142941,0.0251798592508,-0.0110103208759,-0.0594146364446,-0.0210505221396,0.997950674797
1630212528835112030,0,1630212528834927787,world,cf17,-0.999917030334,0.0599759630859,0.0446563027799,-0.00323954990525,-0.0300738716131,-0.156138240133,0.987271957229
1630212528835150234,0,1630212528834942175,world,cf20,2.04459810257,0.00998200848699,0.0254217125475,-0.00599655544305,-0.0583105448864,-0.0181080360292,0.998116236071
1630212528845087010,0,1630212528844739546,world,cf17,-1.00017082691,0.0602594465017,0.0455205142498,0.00163094909203,-0.0278563462663,-0.155798599384,0.98739463256
1630212528845109919,0,1630212528844762804,world,cf20,2.04491662979,0.00979414116591,0.0256647635251,-0.00771938825748,-0.0554386826226,-0.0168071706411,0.998290780549
1630212528855194830,0,1630212528854873068,world,cf17,-1.00059568882,0.0604062564671,0.0465323515236,0.000352802578232,-0.027448418261,-0.151254240237,0.988113664856
1630212528855219205,0,1630212528854896674,world,cf20,2.04512047768,0.0097445352003,0.0257372688502,-0.00909537516584,-0.0544343426148,-0.0155315022196,0.998355121654
1630212528865097035,0,1630212528864783653,world,cf17,-1.00096559525,0.0602330379188,0.0476580373943,0.00234239823391,-0.0250251847221,-0.146587383942,0.988878350541
1630212528865121549,0,1630212528864807050,world,cf20,2.04572534561,0.00990803632885,0.0259438939393,-0.00156407560937,-0.0548223003697,-0.0137585673476,0.998400105606
1630212528874890565,0,1630212528874601000,world,cf17,-1.00134682655,0.0607200823724,0.048741672188,0.00205812062077,-0.0247134522272,-0.145342837756,0.989070507563
1630212528874912495,0,1630212528874623280,world,cf20,2.04594731331,0.00986078009009,0.0262163411826,-0.000521324168659,-0.0527731144118,-0.0130839255,0.998520674553
1630212528885130037,0,1630212528884845151,world,cf17,-1.00193190575,0.0606585294008,0.0499268956482,0.00196670364845,-0.0246521137033,-0.142766428456,0.989447397426
1630212528885160628,0,1630212528884867920,world,cf20,2.04618620872,0.00991451554,0.0263731721789,-0.000359309348651,-0.0544882277107,-0.011743402311,0.998445289658
1630212528894898634,0,1630212528894565208,world,cf17,-1.00244557858,0.0610754527152,0.0507919080555,0.00501630735558,-0.0230983086347,-0.142605290074,0.989497365354
1630212528894932018,0,1630212528894587557,world,cf20,2.04621815681,0.00979046989232,0.0266335681081,0.00176801348129,-0.0515061175359,-0.0110400292338,0.998610089945
1630212528904921455,0,1630212528904654310,world,cf17,-1.00303173065,0.061074770987,0.0522107928991,0.00243718682908,-0.0205503491877,-0.137348037332,0.990306649432
1630212528904933887,0,1630212528904676799,world,cf20,2.04654765129,0.00958656612784,0.0268241073936,-0.00238197280566,-0.0566385293239,-0.0126152843214,0.998312204575
1630212528915029065,0,1630212528914721272,world,cf17,-1.00359559059,0.0612540729344,0.053305555135,0.00344513958035,-0.0235153359418,-0.134385912046,0.990644026193
1630212528915063987,0,1630212528914743831,world,cf20,2.04666900635,0.00955778546631,0.0271730870008,-0.00176539826589,-0.0556478598652,-0.0121739326823,0.998374676374
1630212528925095818,0,1630212528924770843,world,cf17,-1.00418639183,0.0613687746227,0.0547969378531,0.00072043604644,-0.0198224857983,-0.133315533758,0.990875127596
1630212528925119006,0,1630212528924794031,world,cf20,2.04680418968,0.00911595206708,0.0274502821267,-0.00796216614003,-0.0599247575281,-0.0106053210104,0.998114800267
